(1604664709.3663783) $GNVTG,,T,,M,0.086,N,0.159,K,A*3E
(1604664709.371553) $GNGGA,121430.00,4626.03765,N,01118.79326,E,1,07,1.54,237.4,M,46.0,M,,*41
(1604664709.3737066) $GNGSA,A,3,04,07,09,,,,,,,,,,3.51,1.54,3.15,1*0B
(1604664709.375896) $GNGSA,A,3,75,65,66,76,,,,,,,,,3.51,1.54,3.15,2*02
(1604664709.3777924) $GNGSA,A,3,,,,,,,,,,,,,3.51,1.54,3.15,3*03
(1604664709.3796332) $GNGSA,A,3,,,,,,,,,,,,,3.51,1.54,3.15,4*04
(1604664709.38212) $GPGSV,1,1,03,04,32,068,23,07,59,169,28,09,70,050,33,1*59
(1604664709.3845792) $GPGSV,1,1,03,04,32,068,27,07,59,169,22,09,70,050,25,6*57
(1604664709.3874526) $GLGSV,3,1,10,65,43,078,29,66,55,319,28,67,09,289,,72,04,095,,1*7C
(1604664709.3904352) $GLGSV,3,2,10,74,16,026,29,75,50,085,31,76,31,152,32,81,29,259,,1*73
(1604664709.3921952) $GLGSV,3,3,10,82,27,316,,83,02,355,,1*78
(1604664709.395013) $GLGSV,3,1,10,65,43,078,16,66,55,319,26,67,09,289,,72,04,095,,3*7C
(1604664709.3979673) $GLGSV,3,2,10,74,16,026,,75,50,085,25,76,31,152,21,81,29,259,,3*7D
(1604664709.399812) $GLGSV,3,3,10,82,27,316,25,83,02,355,,3*7D
(1604664709.4006279) $GAGSV,1,1,00,*44
(1604664709.4014888) $GAGSV,1,1,00,*44
(1604664709.4023182) $GBGSV,1,1,00,*47
(1604664709.403139) $GBGSV,1,1,00,*47
(1604664709.4053228) $GNGLL,4626.03765,N,01118.79326,E,121430.00,A,A*73
(1604664710.3635871) $GNRMC,121431.00,A,4626.03761,N,01118.79314,E,0.290,,091120,,,A,V*14
(1604664710.3669293) $GNVTG,,T,,M,0.290,N,0.538,K,A*38
(1604664710.3717494) $GNGGA,121431.00,4626.03761,N,01118.79314,E,1,07,1.54,237.2,M,46.0,M,,*43
(1604664710.373881) $GNGSA,A,3,04,07,09,,,,,,,,,,3.51,1.54,3.15,1*0B
(1604664710.3760571) $GNGSA,A,3,75,65,66,76,,,,,,,,,3.51,1.54,3.15,2*02
(1604664710.3779316) $GNGSA,A,3,,,,,,,,,,,,,3.51,1.54,3.15,3*03
(1604664710.3797705) $GNGSA,A,3,,,,,,,,,,,,,3.51,1.54,3.15,4*04
(1604664710.382238) $GPGSV,1,1,03,04,32,068,22,07,59,169,28,09,70,050,32,1*59
(1604664710.384701) $GPGSV,1,1,03,04,32,068,27,07,59,169,21,09,70,050,25,6*54
(1604664710.3875754) $GLGSV,3,1,10,65,43,078,28,66,55,319,28,67,09,289,,72,04,095,,1*7D
(1604664710.3905215) $GLGSV,3,2,10,74,16,026,29,75,50,085,31,76,31,152,32,81,29,259,,1*73
(1604664710.3923042) $GLGSV,3,3,10,82,27,316,,83,02,355,,1*78
(1604664710.3951662) $GLGSV,3,1,10,65,43,078,17,66,55,319,26,67,09,289,,72,04,095,,3*7D
(1604664710.3980014) $GLGSV,3,2,10,74,16,026,,75,50,085,25,76,31,152,20,81,29,259,,3*7C
(1604664710.3998313) $GLGSV,3,3,10,82,27,316,25,83,02,355,,3*7D
(1604664710.400665) $GAGSV,1,1,00,*44
(1604664710.4015074) $GAGSV,1,1,00,*44
(1604664710.4023273) $GBGSV,1,1,00,*47
(1604664710.4031603) $GBGSV,1,1,00,*47
(1604664710.4053884) $GNGLL,4626.03761,N,01118.79314,E,121431.00,A,A*77
(1604664711.3657086) $GNRMC,121432.00,A,4626.03640,N,01118.79261,E,6.121,195.18,091120,,,A,V*03
(1604664711.369401) $GNVTG,195.18,T,,M,6.121,N,11.337,K,A*14
(1604664711.3726282) $GNGGA,121432.00,4626.03640,N,01118.79261,E,1,07,1.54,237.0,M,46.0,M,,*43
(1604664711.3747482) $GNGSA,A,3,04,07,09,,,,,,,,,,3.51,1.54,3.16,1*08
(1604664711.3769395) $GNGSA,A,3,75,65,66,76,,,,,,,,,3.51,1.54,3.16,2*01
(1604664711.3788135) $GNGSA,A,3,,,,,,,,,,,,,3.51,1.54,3.16,3*00
(1604664711.3806856) $GNGSA,A,3,,,,,,,,,,,,,3.51,1.54,3.16,4*07
(1604664711.3832176) $GPGSV,1,1,03,04,32,068,22,07,59,169,28,09,70,050,32,1*59
(1604664711.385753) $GPGSV,1,1,03,04,32,068,28,07,59,169,21,09,70,050,25,6*5B
(1604664711.3886454) $GLGSV,3,1,10,65,43,078,28,66,55,319,28,67,09,289,,72,04,095,,1*7D
(1604664711.391621) $GLGSV,3,2,10,74,16,026,29,75,50,085,31,76,31,152,32,81,29,259,,1*73
(1604664711.393394) $GLGSV,3,3,10,82,27,316,,83,02,355,,1*78
(1604664711.3962471) $GLGSV,3,1,10,65,43,078,17,66,55,319,26,67,09,289,,72,04,095,,3*7D
(1604664711.3991015) $GLGSV,3,2,10,74,16,026,,75,50,085,25,76,31,152,20,81,29,259,,3*7C
(1604664711.4009871) $GLGSV,3,3,10,82,27,316,25,83,02,355,,3*7D
(1604664711.401852) $GAGSV,1,1,00,*44
(1604664711.4027035) $GAGSV,1,1,00,*44
(1604664711.4035249) $GBGSV,1,1,00,*47
(1604664711.4043376) $GBGSV,1,1,00,*47
(1604664711.4065745) $GNGLL,4626.03640,N,01118.79261,E,121432.00,A,A*75
(1604664712.3627934) $GNRMC,121433.00,A,4626.03358,N,01118.79140,E,12.192,196.12,091120,,,A,V*3A
(1604664712.3666387) $GNVTG,196.12,T,,M,12.192,N,22.580,K,A*2A
(1604664712.370607) $GNGGA,121433.00,4626.03358,N,01118.79140,E,1,07,1.54,236.8,M,46.0,M,,*47
(1604664712.3727345) $GNGSA,A,3,04,07,09,,,,,,,,,,3.51,1.54,3.16,1*08
(1604664712.3749337) $GNGSA,A,3,75,65,66,76,,,,,,,,,3.51,1.54,3.16,2*01
(1604664712.3767557) $GNGSA,A,3,,,,,,,,,,,,,3.51,1.54,3.16,3*00
(1604664712.3787143) $GNGSA,A,3,,,,,,,,,,,,,3.51,1.54,3.16,4*07
(1604664712.3812344) $GPGSV,1,1,03,04,32,068,23,07,59,169,28,09,70,050,32,1*58
(1604664712.3836725) $GPGSV,1,1,03,04,32,068,27,07,59,169,21,09,70,050,25,6*54
(1604664712.3865492) $GLGSV,3,1,10,65,43,078,28,66,55,319,27,67,09,289,,72,04,095,,1*72
(1604664712.3894715) $GLGSV,3,2,10,74,16,026,28,75,50,085,31,76,31,152,32,81,29,259,,1*72
(1604664712.3912344) $GLGSV,3,3,10,82,27,316,,83,02,355,,1*78
(1604664712.3940673) $GLGSV,3,1,10,65,43,078,17,66,55,319,26,67,09,289,,72,04,095,,3*7D
(1604664712.396874) $GLGSV,3,2,10,74,16,026,,75,50,085,25,76,31,152,20,81,29,259,,3*7C
(1604664712.3987565) $GLGSV,3,3,10,82,27,316,26,83,02,355,,3*7E
(1604664712.3995805) $GAGSV,1,1,00,*44
(1604664712.4003918) $GAGSV,1,1,00,*44
(1604664712.4012592) $GBGSV,1,1,00,*47
(1604664712.4020889) $GBGSV,1,1,00,*47
(1604664712.4042537) $GNGLL,4626.03358,N,01118.79140,E,121433.00,A,A*78
(1604664713.3645945) $GNRMC,121434.00,A,4626.02927,N,01118.78930,E,17.899,198.61,091120,,,A,V*3D
(1604664713.3678057) $GNVTG,198.61,T,,M,17.899,N,33.149,K,A*26
(1604664713.3709905) $GNGGA,121434.00,4626.02927,N,01118.78930,E,1,07,1.54,236.5,M,46.0,M,,*40
(1604664713.3731217) $GNGSA,A,3,04,07,09,,,,,,,,,,3.51,1.54,3.16,1*08
(1604664713.375293) $GNGSA,A,3,75,65,66,76,,,,,,,,,3.51,1.54,3.16,2*01
(1604664713.377182) $GNGSA,A,3,,,,,,,,,,,,,3.51,1.54,3.16,3*00
(1604664713.3790255) $GNGSA,A,3,,,,,,,,,,,,,3.51,1.54,3.16,4*07
(1604664713.3815193) $GPGSV,1,1,03,04,32,068,23,07,59,169,28,09,70,050,32,1*58
(1604664713.3839464) $GPGSV,1,1,03,04,32,068,27,07,59,169,20,09,70,050,25,6*55
(1604664713.3868098) $GLGSV,3,1,10,65,43,078,29,66,55,319,27,67,09,289,,72,04,095,,1*73
(1604664713.389771) $GLGSV,3,2,10,74,16,026,28,75,50,085,31,76,31,152,32,81,29,259,,1*72
(1604664713.3915336) $GLGSV,3,3,10,82,27,316,,83,02,355,,1*78
(1604664713.3943994) $GLGSV,3,1,10,65,43,078,16,66,55,319,26,67,09,289,,72,04,095,,3*7C
(1604664713.397249) $GLGSV,3,2,10,74,16,026,,75,50,085,25,76,31,152,21,81,29,259,,3*7D
(1604664713.3991156) $GLGSV,3,3,10,82,27,316,25,83,02,355,,3*7D
(1604664713.399933) $GAGSV,1,1,00,*44
(1604664713.4007583) $GAGSV,1,1,00,*44
(1604664713.4015973) $GBGSV,1,1,00,*47
(1604664713.4024603) $GBGSV,1,1,00,*47
(1604664713.4046981) $GNGLL,4626.02927,N,01118.78930,E,121434.00,A,A*72
(1604664714.3657072) $GNRMC,121435.00,A,4626.02351,N,01118.78657,E,23.288,197.84,091120,,,A,V*30
(1604664714.3688905) $GNVTG,197.84,T,,M,23.288,N,43.129,K,A*2E
(1604664714.3720608) $GNGGA,121435.00,4626.02351,N,01118.78657,E,1,08,1.35,236.4,M,46.0,M,,*4D
(1604664714.3742118) $GNGSA,A,3,04,07,09,,,,,,,,,,2.43,1.35,2.02,1*09
(1604664714.376465) $GNGSA,A,3,75,65,66,76,74,,,,,,,,2.43,1.35,2.02,2*03
(1604664714.3783824) $GNGSA,A,3,,,,,,,,,,,,,2.43,1.35,2.02,3*01
(1604664714.3802474) $GNGSA,A,3,,,,,,,,,,,,,2.43,1.35,2.02,4*06
(1604664714.3827953) $GPGSV,1,1,03,04,32,068,24,07,59,169,28,09,70,050,32,1*5F
(1604664714.3852813) $GPGSV,1,1,03,04,32,068,26,07,59,169,20,09,70,050,25,6*54
(1604664714.3881214) $GLGSV,3,1,10,65,43,078,29,66,55,319,27,67,09,289,,72,04,095,,1*73
(1604664714.3910415) $GLGSV,3,2,10,74,16,026,28,75,50,085,31,76,31,152,32,81,29,259,,1*72
(1604664714.3928058) $GLGSV,3,3,10,82,27,316,,83,02,355,,1*78
(1604664714.395679) $GLGSV,3,1,10,65,43,078,16,66,55,319,26,67,09,289,,72,04,095,,3*7C
(1604664714.3985217) $GLGSV,3,2,10,74,16,026,,75,50,085,26,76,31,152,19,81,29,259,,3*75
(1604664714.4004047) $GLGSV,3,3,10,82,27,316,25,83,02,355,,3*7D
(1604664714.401259) $GAGSV,1,1,00,*44
(1604664714.4020765) $GAGSV,1,1,00,*44
(1604664714.402893) $GBGSV,1,1,00,*47
(1604664714.4037216) $GBGSV,1,1,00,*47
(1604664714.4059799) $GNGLL,4626.02351,N,01118.78657,E,121435.00,A,A*76
(1604664715.3639035) $GNRMC,121436.00,A,4626.01641,N,01118.78338,E,28.192,196.71,091120,,,A,V*30
(1604664715.3676505) $GNVTG,196.71,T,,M,28.192,N,52.211,K,A*2E
(1604664715.3711212) $GNGGA,121436.00,4626.01641,N,01118.78338,E,1,08,1.35,236.2,M,46.0,M,,*43
(1604664715.373246) $GNGSA,A,3,04,07,09,,,,,,,,,,2.43,1.35,2.02,1*09
(1604664715.375483) $GNGSA,A,3,75,65,66,76,74,,,,,,,,2.43,1.35,2.02,2*03
(1604664715.3774052) $GNGSA,A,3,,,,,,,,,,,,,2.43,1.35,2.02,3*01
(1604664715.3792484) $GNGSA,A,3,,,,,,,,,,,,,2.43,1.35,2.02,4*06
(1604664715.3817785) $GPGSV,1,1,03,04,32,068,24,07,59,169,29,09,70,050,32,1*5E
(1604664715.3843029) $GPGSV,1,1,03,04,32,068,27,07,59,169,20,09,70,050,25,6*55
(1604664715.3871489) $GLGSV,3,1,10,65,43,078,29,66,55,319,27,67,09,289,,72,04,095,,1*73
(1604664715.3900862) $GLGSV,3,2,10,74,16,026,28,75,50,085,30,76,31,152,32,81,29,259,,1*73
(1604664715.3918223) $GLGSV,3,3,10,82,27,316,,83,02,355,,1*78
(1604664715.39467) $GLGSV,3,1,10,65,43,078,17,66,55,319,26,67,09,289,,72,04,095,,3*7D
(1604664715.3975136) $GLGSV,3,2,10,74,16,026,,75,50,085,26,76,31,152,18,81,29,259,,3*74
(1604664715.3993313) $GLGSV,3,3,10,82,27,316,25,83,02,355,,3*7D
(1604664715.4001396) $GAGSV,1,1,00,*44
(1604664715.4009504) $GAGSV,1,1,00,*44
(1604664715.4017978) $GBGSV,1,1,00,*47
(1604664715.402627) $GBGSV,1,1,00,*47
(1604664715.4047902) $GNGLL,4626.01641,N,01118.78338,E,121436.00,A,A*7E
(1604664716.3652096) $GNRMC,121437.00,A,4626.00936,N,01118.78038,E,25.736,195.26,091120,,,A,V*38
(1604664716.3675582) $GNVTG,195.26,T,,M,25.736,N,47.663,K,A*2F
(1604664716.3707173) $GNGGA,121437.00,4626.00936,N,01118.78038,E,1,08,1.35,235.8,M,46.0,M,,*46
(1604664716.372791) $GNGSA,A,3,04,07,09,,,,,,,,,,2.43,1.35,2.02,1*09
(1604664716.3753176) $GNGSA,A,3,75,65,66,76,74,,,,,,,,2.43,1.35,2.02,2*03
(1604664716.3771768) $GNGSA,A,3,,,,,,,,,,,,,2.43,1.35,2.02,3*01
(1604664716.3790143) $GNGSA,A,3,,,,,,,,,,,,,2.43,1.35,2.02,4*06
(1604664716.3815162) $GPGSV,1,1,03,04,32,068,23,07,59,169,29,09,70,050,32,1*59
(1604664716.3839815) $GPGSV,1,1,03,04,32,068,27,07,59,169,20,09,70,050,25,6*55
(1604664716.3868783) $GLGSV,3,1,10,65,43,078,28,66,55,319,27,67,09,289,,72,04,095,,1*72
(1604664716.3898637) $GLGSV,3,2,10,74,16,026,28,75,50,085,30,76,31,152,31,81,29,259,,1*70
(1604664716.3916626) $GLGSV,3,3,10,82,27,316,,83,02,355,,1*78
(1604664716.3944983) $GLGSV,3,1,10,65,43,078,18,66,55,319,26,67,09,289,,72,04,095,,3*72
(1604664716.3973505) $GLGSV,3,2,10,74,16,026,,75,50,085,26,76,31,152,18,81,29,259,,3*74
(1604664716.3991747) $GLGSV,3,3,10,82,27,316,24,83,02,355,,3*7C
(1604664716.4000018) $GAGSV,1,1,00,*44
(1604664716.4008324) $GAGSV,1,1,00,*44
(1604664716.4016929) $GBGSV,1,1,00,*47
(1604664716.4025295) $GBGSV,1,1,00,*47
(1604664716.4047167) $GNGLL,4626.00936,N,01118.78038,E,121437.00,A,A*72
(1604664717.364633) $GNRMC,121438.00,A,4626.00332,N,01118.77809,E,21.177,192.96,091120,,,A,V*37
(1604664717.3665178) $GNVTG,192.96,T,,M,21.177,N,39.220,K,A*2E
(1604664717.3696735) $GNGGA,121438.00,4626.00332,N,01118.77809,E,1,08,1.35,235.5,M,46.0,M,,*4F
(1604664717.3717604) $GNGSA,A,3,04,07,09,,,,,,,,,,2.43,1.35,2.02,1*09
(1604664717.3740697) $GNGSA,A,3,75,65,66,76,74,,,,,,,,2.43,1.35,2.02,2*03
(1604664717.3759224) $GNGSA,A,3,,,,,,,,,,,,,2.43,1.35,2.02,3*01
(1604664717.3777685) $GNGSA,A,3,,,,,,,,,,,,,2.43,1.35,2.02,4*06
(1604664717.3802512) $GPGSV,1,1,03,04,32,068,24,07,59,169,29,09,70,050,32,1*5E
(1604664717.3827584) $GPGSV,1,1,03,04,32,068,26,07,59,169,21,09,70,050,25,6*55
(1604664717.3856518) $GLGSV,3,1,10,65,43,078,28,66,55,319,27,67,09,289,,72,04,095,,1*72
(1604664717.388573) $GLGSV,3,2,10,74,16,026,28,75,50,085,31,76,31,152,31,81,29,259,,1*71
(1604664717.3903587) $GLGSV,3,3,10,82,27,316,,83,02,355,,1*78
(1604664717.3931785) $GLGSV,3,1,10,65,43,078,19,66,55,319,26,67,09,289,,72,04,095,,3*73
(1604664717.395992) $GLGSV,3,2,10,74,16,026,,75,50,085,25,76,31,152,18,81,29,259,,3*77
(1604664717.397861) $GLGSV,3,3,10,82,27,316,25,83,02,355,,3*7D
(1604664717.3986766) $GAGSV,1,1,00,*44
(1604664717.3995237) $GAGSV,1,1,00,*44
(1604664717.4003716) $GBGSV,1,1,00,*47
(1604664717.401213) $GBGSV,1,1,00,*47
(1604664717.4033937) $GNGLL,4626.00332,N,01118.77809,E,121438.00,A,A*76
(1604664718.3654191) $GNRMC,121439.00,A,4625.99816,N,01118.77882,E,18.367,165.69,091120,,,A,V*3A
(1604664718.3692362) $GNVTG,165.69,T,,M,18.367,N,34.016,K,A*25
(1604664718.374062) $GNGGA,121439.00,4625.99816,N,01118.77882,E,1,08,1.35,235.2,M,46.0,M,,*44
(1604664718.3762057) $GNGSA,A,3,04,07,09,,,,,,,,,,2.43,1.35,2.02,1*09
(1604664718.378484) $GNGSA,A,3,75,65,66,76,74,,,,,,,,2.43,1.35,2.02,2*03
(1604664718.3803136) $GNGSA,A,3,,,,,,,,,,,,,2.43,1.35,2.02,3*01
(1604664718.3821807) $GNGSA,A,3,,,,,,,,,,,,,2.43,1.35,2.02,4*06
(1604664718.384661) $GPGSV,1,1,03,04,32,068,25,07,59,169,28,09,70,050,31,1*5D
(1604664718.3871815) $GPGSV,1,1,03,04,32,068,25,07,59,169,22,09,70,050,26,6*56
(1604664718.3902104) $GLGSV,3,1,10,65,43,078,27,66,55,319,28,67,09,289,,72,04,095,,1*72
(1604664718.3931172) $GLGSV,3,2,10,74,16,026,27,75,50,085,31,76,31,152,29,81,29,259,,1*77
(1604664718.3949914) $GLGSV,3,3,10,82,27,316,28,83,02,355,,1*72
(1604664718.3978567) $GLGSV,3,1,10,65,43,078,19,66,55,319,27,67,09,289,,72,04,095,,3*72
(1604664718.4007437) $GLGSV,3,2,10,74,16,026,,75,50,085,26,76,31,152,20,81,29,259,,3*7F
(1604664718.402672) $GLGSV,3,3,10,82,27,316,26,83,02,355,,3*7E
(1604664718.4035099) $GAGSV,1,1,00,*44
(1604664718.4043257) $GAGSV,1,1,00,*44
(1604664718.405192) $GBGSV,1,1,00,*47
(1604664718.4060133) $GBGSV,1,1,00,*47
(1604664718.4081845) $GNGLL,4625.99816,N,01118.77882,E,121439.00,A,A*7A
(1604664719.364845) $GNRMC,121440.00,A,4625.99470,N,01118.78395,E,18.661,123.77,091120,,,A,V*34
(1604664719.3687332) $GNVTG,123.77,T,,M,18.661,N,34.560,K,A*2F
(1604664719.3732717) $GNGGA,121440.00,4625.99470,N,01118.78395,E,1,08,1.35,236.5,M,46.0,M,,*40
(1604664719.3753693) $GNGSA,A,3,04,07,09,,,,,,,,,,2.43,1.35,2.02,1*09
(1604664719.377653) $GNGSA,A,3,75,65,66,76,74,,,,,,,,2.43,1.35,2.02,2*03
(1604664719.3794894) $GNGSA,A,3,,,,,,,,,,,,,2.43,1.35,2.02,3*01
(1604664719.3813431) $GNGSA,A,3,,,,,,,,,,,,,2.43,1.35,2.02,4*06
(1604664719.3838336) $GPGSV,1,1,03,04,32,068,25,07,59,169,12,09,70,050,29,1*5D
(1604664719.3863418) $GPGSV,1,1,03,04,32,068,22,07,59,169,21,09,70,050,26,6*52
(1604664719.3892264) $GLGSV,3,1,10,65,43,078,27,66,55,319,33,67,09,289,,72,04,095,,1*78
(1604664719.3921351) $GLGSV,3,2,10,74,16,026,24,75,50,085,31,76,31,152,27,81,29,259,,1*7A
(1604664719.3939888) $GLGSV,3,3,10,82,27,316,27,83,02,355,,1*7D
(1604664719.3968117) $GLGSV,3,1,10,65,43,078,16,66,55,319,25,67,09,289,,72,04,095,,3*7F
(1604664719.399704) $GLGSV,3,2,10,74,16,026,,75,50,085,25,76,31,152,21,81,29,259,,3*7D
(1604664719.4015968) $GLGSV,3,3,10,82,27,316,27,83,02,355,,3*7F
(1604664719.402428) $GAGSV,1,1,00,*44
(1604664719.4032626) $GAGSV,1,1,00,*44
(1604664719.4040818) $GBGSV,1,1,00,*47
(1604664719.404915) $GBGSV,1,1,00,*47
(1604664719.4071498) $GNGLL,4625.99470,N,01118.78395,E,121440.00,A,A*7A
(1604664720.3649316) $GNRMC,121441.00,A,4625.99434,N,01118.79136,E,20.260,85.09,091120,,,A,V*05
(1604664720.368719) $GNVTG,85.09,T,,M,20.260,N,37.521,K,A*13
(1604664720.3722577) $GNGGA,121441.00,4625.99434,N,01118.79136,E,1,07,1.35,236.6,M,46.0,M,,*47
(1604664720.3744042) $GNGSA,A,3,04,07,09,,,,,,,,,,2.43,1.35,2.02,1*09
(1604664720.3766592) $GNGSA,A,3,75,65,66,76,74,,,,,,,,2.43,1.35,2.02,2*03
(1604664720.3785174) $GNGSA,A,3,,,,,,,,,,,,,2.43,1.35,2.02,3*01
(1604664720.3803732) $GNGSA,A,3,,,,,,,,,,,,,2.43,1.35,2.02,4*06
(1604664720.382875) $GPGSV,1,1,03,04,32,068,24,07,59,169,09,09,70,050,28,1*57
(1604664720.385379) $GPGSV,1,1,03,04,32,068,21,07,59,169,23,09,70,050,27,6*52
(1604664720.3882427) $GLGSV,3,1,10,65,42,078,26,66,55,319,32,67,09,289,,72,04,095,,1*79
(1604664720.3911693) $GLGSV,3,2,10,74,16,026,25,75,50,085,30,76,31,152,24,81,29,259,,1*79
(1604664720.3930192) $GLGSV,3,3,10,82,27,316,27,83,02,355,,1*7D
(1604664720.3958921) $GLGSV,3,1,10,65,42,078,16,66,55,319,24,67,09,289,,72,04,095,,3*7F
(1604664720.3987439) $GLGSV,3,2,10,74,16,026,,75,50,085,25,76,31,152,25,81,29,259,,3*79
(1604664720.4006252) $GLGSV,3,3,10,82,27,316,27,83,02,355,,3*7F
(1604664720.4014795) $GAGSV,1,1,00,*44
(1604664720.4022958) $GAGSV,1,1,00,*44
(1604664720.403136) $GBGSV,1,1,00,*47
(1604664720.403956) $GBGSV,1,1,00,*47
(1604664720.4062011) $GNGLL,4625.99434,N,01118.79136,E,121441.00,A,A*71
(1604664721.3645933) $GNRMC,121442.00,A,4625.99782,N,01118.79915,E,24.206,51.15,091120,,,A,V*01
(1604664721.3682942) $GNVTG,51.15,T,,M,24.206,N,44.830,K,A*1A
(1604664721.372199) $GNGGA,121442.00,4625.99782,N,01118.79915,E,1,08,1.35,236.6,M,46.0,M,,*4C
(1604664721.3743649) $GNGSA,A,3,04,07,09,,,,,,,,,,2.43,1.35,2.02,1*09
(1604664721.376623) $GNGSA,A,3,75,65,66,76,74,,,,,,,,2.43,1.35,2.02,2*03
(1604664721.378486) $GNGSA,A,3,,,,,,,,,,,,,2.43,1.35,2.02,3*01
(1604664721.3803432) $GNGSA,A,3,,,,,,,,,,,,,2.43,1.35,2.02,4*06
(1604664721.382876) $GPGSV,1,1,03,04,32,068,23,07,59,169,16,09,70,050,29,1*5F
(1604664721.3853853) $GPGSV,1,1,03,04,32,068,18,07,59,169,25,09,70,050,26,6*5F
(1604664721.3882482) $GLGSV,3,1,10,65,42,078,26,66,55,319,25,67,09,289,,72,04,095,,1*7F
(1604664721.391176) $GLGSV,3,2,10,74,16,026,23,75,50,085,28,76,31,152,22,81,29,259,,1*70
(1604664721.3930416) $GLGSV,3,3,10,82,27,316,25,83,02,355,,1*7F
(1604664721.3958976) $GLGSV,3,1,10,65,42,078,16,66,55,319,25,67,09,289,,72,04,095,,3*7E
(1604664721.3987553) $GLGSV,3,2,10,74,16,026,,75,50,085,25,76,31,152,24,81,29,259,,3*78
(1604664721.4006135) $GLGSV,3,3,10,82,27,316,27,83,02,355,,3*7F
(1604664721.401506) $GAGSV,1,1,00,*44
(1604664721.4023378) $GAGSV,1,1,00,*44
(1604664721.403194) $GBGSV,1,1,00,*47
(1604664721.4040067) $GBGSV,1,1,00,*47
(1604664721.4062228) $GNGLL,4625.99782,N,01118.79915,E,121442.00,A,A*75
(1604664722.3639212) $GNRMC,121443.00,A,4626.00443,N,01118.80575,E,29.865,30.87,091120,,,A,V*0F
(1604664722.3677425) $GNVTG,30.87,T,,M,29.865,N,55.310,K,A*1D
(1604664722.3730226) $GNGGA,121443.00,4626.00443,N,01118.80575,E,1,08,1.35,237.0,M,46.0,M,,*4B
(1604664722.3752117) $GNGSA,A,3,04,07,09,,,,,,,,,,2.43,1.35,2.02,1*09
(1604664722.3774912) $GNGSA,A,3,75,65,66,76,74,,,,,,,,2.43,1.35,2.02,2*03
(1604664722.3793256) $GNGSA,A,3,,,,,,,,,,,,,2.43,1.35,2.02,3*01
(1604664722.381259) $GNGSA,A,3,,,,,,,,,,,,,2.43,1.35,2.02,4*06
(1604664722.3837147) $GPGSV,1,1,03,04,32,068,19,07,59,169,19,09,70,050,29,1*59
(1604664722.3862007) $GPGSV,1,1,03,04,32,068,18,07,59,169,25,09,70,050,26,6*5F
(1604664722.3890462) $GLGSV,3,1,10,65,42,078,26,66,55,319,26,67,09,289,,72,04,095,,1*7C
(1604664722.3919773) $GLGSV,3,2,10,74,16,026,21,75,50,085,26,76,31,152,19,81,29,259,,1*74
(1604664722.3938565) $GLGSV,3,3,10,82,27,316,24,83,02,355,,1*7E
(1604664722.3967094) $GLGSV,3,1,10,65,42,078,16,66,55,319,24,67,09,289,,72,04,095,,3*7F
(1604664722.39958) $GLGSV,3,2,10,74,16,026,,75,50,085,25,76,31,152,25,81,29,259,,3*79
(1604664722.401495) $GLGSV,3,3,10,82,27,316,25,83,02,355,,3*7D
(1604664722.4023376) $GAGSV,1,1,00,*44
(1604664722.403159) $GAGSV,1,1,00,*44
(1604664722.4039872) $GBGSV,1,1,00,*47
(1604664722.404818) $GBGSV,1,1,00,*47
(1604664722.4070058) $GNGLL,4626.00443,N,01118.80575,E,121443.00,A,A*75
(1604664723.3648493) $GNRMC,121444.00,A,4626.01338,N,01118.81088,E,35.137,18.82,091120,,,A,V*08
(1604664723.3685956) $GNVTG,18.82,T,,M,35.137,N,65.073,K,A*14
(1604664723.3738632) $GNGGA,121444.00,4626.01338,N,01118.81088,E,1,08,1.35,237.4,M,46.0,M,,*44
(1604664723.3760166) $GNGSA,A,3,04,07,09,,,,,,,,,,2.43,1.35,2.02,1*09
(1604664723.378288) $GNGSA,A,3,75,65,66,76,74,,,,,,,,2.43,1.35,2.02,2*03
(1604664723.3801298) $GNGSA,A,3,,,,,,,,,,,,,2.43,1.35,2.02,3*01
(1604664723.3820224) $GNGSA,A,3,,,,,,,,,,,,,2.43,1.35,2.02,4*06
(1604664723.3845267) $GPGSV,1,1,03,04,32,068,17,07,59,169,24,09,70,050,28,1*58
(1604664723.387027) $GPGSV,1,1,03,04,32,068,20,07,59,169,25,09,70,050,25,6*57
(1604664723.389893) $GLGSV,3,1,10,65,42,078,25,66,55,319,27,67,09,289,,72,04,095,,1*7E
(1604664723.3928027) $GLGSV,3,2,10,74,16,026,20,75,50,085,24,76,31,152,23,81,29,259,,1*7E
(1604664723.3946927) $GLGSV,3,3,10,82,27,316,23,83,02,355,,1*79
(1604664723.3975554) $GLGSV,3,1,10,65,42,078,16,66,55,319,23,67,09,289,,72,04,095,,3*78
(1604664723.4003723) $GLGSV,3,2,10,74,16,026,,75,50,085,26,76,31,152,27,81,29,259,,3*78
(1604664723.4022427) $GLGSV,3,3,10,82,27,316,21,83,02,355,,3*79
(1604664723.4030628) $GAGSV,1,1,00,*44
(1604664723.4039037) $GAGSV,1,1,00,*44
(1604664723.4047644) $GBGSV,1,1,00,*47
(1604664723.4056127) $GBGSV,1,1,00,*47
(1604664723.4077747) $GNGLL,4626.01338,N,01118.81088,E,121444.00,A,A*7E
(1604664724.364719) $GNRMC,121445.00,A,4626.02353,N,01118.81470,E,38.887,13.32,091120,,,A,V*0B
(1604664724.3684545) $GNVTG,13.32,T,,M,38.887,N,72.018,K,A*10
(1604664724.3726733) $GNGGA,121445.00,4626.02353,N,01118.81470,E,1,08,1.35,238.0,M,46.0,M,,*43
(1604664724.3747947) $GNGSA,A,3,04,07,09,,,,,,,,,,2.43,1.35,2.02,1*09
(1604664724.3770466) $GNGSA,A,3,75,65,66,76,74,,,,,,,,2.43,1.35,2.02,2*03
(1604664724.3789082) $GNGSA,A,3,,,,,,,,,,,,,2.43,1.35,2.02,3*01
(1604664724.3807647) $GNGSA,A,3,,,,,,,,,,,,,2.43,1.35,2.02,4*06
(1604664724.3833003) $GPGSV,1,1,03,04,32,068,14,07,59,169,26,09,70,050,26,1*57
(1604664724.3858032) $GPGSV,1,1,03,04,32,068,20,07,59,169,24,09,70,050,25,6*56
(1604664724.3886602) $GLGSV,3,1,10,65,42,078,24,66,55,319,29,67,09,289,,72,04,095,,1*71
(1604664724.3916037) $GLGSV,3,2,10,74,16,026,21,75,50,085,20,76,31,152,22,81,29,259,,1*7A
(1604664724.3935015) $GLGSV,3,3,10,82,27,316,24,83,02,355,,1*7E
(1604664724.3963115) $GLGSV,3,1,10,65,42,078,16,66,55,319,22,67,09,289,,72,04,095,,3*79
(1604664724.399174) $GLGSV,3,2,10,74,16,026,,75,50,085,27,76,31,152,28,81,29,259,,3*76
(1604664724.4010024) $GLGSV,3,3,10,82,27,316,17,83,02,355,,3*7C
(1604664724.401853) $GAGSV,1,1,00,*44
(1604664724.4026775) $GAGSV,1,1,00,*44
(1604664724.4034934) $GBGSV,1,1,00,*47
(1604664724.4043021) $GBGSV,1,1,00,*47
(1604664724.4065068) $GNGLL,4626.02353,N,01118.81470,E,121445.00,A,A*72
(1604664725.3638833) $GNRMC,121446.00,A,4626.03487,N,01118.81853,E,42.946,13.10,091120,,,A,V*0B
(1604664725.3676915) $GNVTG,13.10,T,,M,42.946,N,79.536,K,A*13
(1604664725.3728385) $GNGGA,121446.00,4626.03487,N,01118.81853,E,1,07,1.35,238.0,M,46.0,M,,*4D
(1604664725.3749826) $GNGSA,A,3,04,07,09,,,,,,,,,,2.43,1.35,2.02,1*09
(1604664725.3772652) $GNGSA,A,3,75,65,66,76,74,,,,,,,,2.43,1.35,2.02,2*03
(1604664725.3791037) $GNGSA,A,3,,,,,,,,,,,,,2.43,1.35,2.02,3*01
(1604664725.3809953) $GNGSA,A,3,,,,,,,,,,,,,2.43,1.35,2.02,4*06
(1604664725.3834755) $GPGSV,1,1,03,04,32,068,10,07,59,169,27,09,70,050,25,1*51
(1604664725.385981) $GPGSV,1,1,03,04,32,068,21,07,59,169,22,09,70,050,25,6*51
(1604664725.3888009) $GLGSV,3,1,10,65,42,078,23,66,55,319,30,67,09,289,,72,04,095,,1*7E
(1604664725.3917446) $GLGSV,3,2,10,74,16,026,21,75,50,085,15,76,31,152,22,81,29,259,,1*7C
(1604664725.3936615) $GLGSV,3,3,10,82,27,316,25,83,02,355,,1*7F
(1604664725.3964686) $GLGSV,3,1,10,65,42,078,16,66,55,319,21,67,09,289,,72,04,095,,3*7A
(1604664725.3993282) $GLGSV,3,2,10,74,16,026,,75,50,085,27,76,31,152,28,81,29,259,,3*76
(1604664725.4012082) $GLGSV,3,3,10,82,27,316,15,83,02,355,,3*7E
(1604664725.4020329) $GAGSV,1,1,00,*44
(1604664725.4028502) $GAGSV,1,1,00,*44
(1604664725.403689) $GBGSV,1,1,00,*47
(1604664725.4044998) $GBGSV,1,1,00,*47
(1604664725.4067128) $GNGLL,4626.03487,N,01118.81853,E,121446.00,A,A*73
(1604664726.3640265) $GNRMC,121447.00,A,4626.04613,N,01118.82295,E,41.682,15.84,091120,,,A,V*0E
(1604664726.3671758) $GNVTG,15.84,T,,M,41.682,N,77.195,K,A*1F
(1604664726.3703296) $GNGGA,121447.00,4626.04613,N,01118.82295,E,1,07,1.35,238.6,M,46.0,M,,*41
(1604664726.372449) $GNGSA,A,3,04,07,09,,,,,,,,,,2.43,1.35,2.02,1*09
(1604664726.3747168) $GNGSA,A,3,75,65,66,76,74,,,,,,,,2.43,1.35,2.02,2*03
(1604664726.376544) $GNGSA,A,3,,,,,,,,,,,,,2.43,1.35,2.02,3*01
(1604664726.3784811) $GNGSA,A,3,,,,,,,,,,,,,2.43,1.35,2.02,4*06
(1604664726.3809416) $GPGSV,1,1,03,04,32,068,09,07,59,169,27,09,70,050,24,1*58
(1604664726.3834324) $GPGSV,1,1,03,04,32,068,20,07,59,169,21,09,70,050,24,6*52
(1604664726.3863125) $GLGSV,3,1,10,65,42,078,22,66,55,319,30,67,09,289,,72,04,095,,1*7F
(1604664726.3892717) $GLGSV,3,2,10,74,16,026,22,75,50,085,10,76,31,152,22,81,29,259,,1*7A
(1604664726.3911562) $GLGSV,3,3,10,82,27,316,25,83,02,355,,1*7F
(1604664726.3940601) $GLGSV,3,1,10,65,42,078,16,66,55,319,20,67,09,289,,72,04,095,,3*7B
(1604664726.3969207) $GLGSV,3,2,10,74,16,026,,75,50,085,26,76,31,152,28,81,29,259,,3*77
(1604664726.3988) $GLGSV,3,3,10,82,27,316,14,83,02,355,,3*7F
(1604664726.3996289) $GAGSV,1,1,00,*44
(1604664726.4004478) $GAGSV,1,1,00,*44
(1604664726.4013011) $GBGSV,1,1,00,*47
(1604664726.402123) $GBGSV,1,1,00,*47
(1604664726.4043458) $GNGLL,4626.04613,N,01118.82295,E,121447.00,A,A*79
(1604664727.3630173) $GNRMC,121448.00,A,4626.05626,N,01118.82672,E,37.620,15.19,091120,,,A,V*06
(1604664727.3666852) $GNVTG,15.19,T,,M,37.620,N,69.672,K,A*13
(1604664727.370079) $GNGGA,121448.00,4626.05626,N,01118.82672,E,1,08,1.35,238.9,M,46.0,M,,*44
(1604664727.372249) $GNGSA,A,3,04,07,09,,,,,,,,,,2.43,1.35,2.02,1*09
(1604664727.3745372) $GNGSA,A,3,75,65,66,76,74,,,,,,,,2.43,1.35,2.02,2*03
(1604664727.376387) $GNGSA,A,3,,,,,,,,,,,,,2.43,1.35,2.02,3*01
(1604664727.378284) $GNGSA,A,3,,,,,,,,,,,,,2.43,1.35,2.02,4*06
(1604664727.380756) $GPGSV,1,1,03,04,32,068,10,07,59,169,27,09,70,050,25,1*51
(1604664727.3832653) $GPGSV,1,1,03,04,32,068,19,07,59,169,21,09,70,050,24,6*58
(1604664727.386131) $GLGSV,3,1,10,65,42,078,21,66,55,319,30,67,09,289,,72,04,095,,1*7C
(1604664727.3890305) $GLGSV,3,2,10,74,16,026,22,75,50,085,,76,31,152,23,81,29,259,,1*7A
(1604664727.3908985) $GLGSV,3,3,10,82,27,316,25,83,02,355,,1*7F
(1604664727.3937283) $GLGSV,3,1,10,65,42,078,16,66,55,319,21,67,09,289,,72,04,095,,3*7A
(1604664727.396553) $GLGSV,3,2,10,74,16,026,,75,50,085,26,76,31,152,28,81,29,259,,3*77
(1604664727.3984036) $GLGSV,3,3,10,82,27,316,13,83,02,355,,3*78
(1604664727.3992207) $GAGSV,1,1,00,*44
(1604664727.4000351) $GAGSV,1,1,00,*44
(1604664727.4008424) $GBGSV,1,1,00,*47
(1604664727.4017098) $GBGSV,1,1,00,*47
(1604664727.4039288) $GNGLL,4626.05626,N,01118.82672,E,121448.00,A,A*7C
(1604664728.3654096) $GNRMC,121449.00,A,4626.06542,N,01118.82969,E,33.209,13.45,091120,,,A,V*04
(1604664728.3676355) $GNVTG,13.45,T,,M,33.209,N,61.503,K,A*1A
(1604664728.3707752) $GNGGA,121449.00,4626.06542,N,01118.82969,E,1,06,1.35,239.2,M,46.0,M,,*46
(1604664728.3728697) $GNGSA,A,3,04,07,09,,,,,,,,,,2.43,1.35,2.02,1*09
(1604664728.3751788) $GNGSA,A,3,75,65,66,76,74,,,,,,,,2.43,1.35,2.02,2*03
(1604664728.3770347) $GNGSA,A,3,,,,,,,,,,,,,2.43,1.35,2.02,3*01
(1604664728.378914) $GNGSA,A,3,,,,,,,,,,,,,2.43,1.35,2.02,4*06
(1604664728.381398) $GPGSV,1,1,03,04,32,068,10,07,59,169,27,09,70,050,25,1*51
(1604664728.383858) $GPGSV,1,1,03,04,32,068,19,07,59,169,21,09,70,050,24,6*58
(1604664728.3867283) $GLGSV,3,1,10,65,42,078,21,66,55,319,30,67,09,289,,72,04,095,,1*7C
(1604664728.3895764) $GLGSV,3,2,10,74,16,026,23,75,50,085,,76,31,152,25,81,29,259,,1*7D
(1604664728.3914118) $GLGSV,3,3,10,82,27,316,26,83,02,355,,1*7C
(1604664728.394255) $GLGSV,3,1,10,65,42,078,15,66,55,319,21,67,09,289,,72,04,095,,3*79
(1604664728.3970735) $GLGSV,3,2,10,74,16,026,,75,50,085,26,76,31,152,28,81,29,259,,3*77
(1604664728.3989496) $GLGSV,3,3,10,82,27,316,13,83,02,355,,3*78
(1604664728.3997633) $GAGSV,1,1,00,*44
(1604664728.4005947) $GAGSV,1,1,00,*44
(1604664728.4014604) $GBGSV,1,1,00,*47
(1604664728.402286) $GBGSV,1,1,00,*47
(1604664728.4044635) $GNGLL,4626.06542,N,01118.82969,E,121449.00,A,A*7A
(1604664729.365222) $GNRMC,121450.00,A,4626.07293,N,01118.82740,E,27.357,346.05,091120,,,A,V*3B
(1604664729.3672388) $GNVTG,346.05,T,,M,27.357,N,50.666,K,A*20
(1604664729.37038) $GNGGA,121450.00,4626.07293,N,01118.82740,E,1,07,1.35,237.1,M,46.0,M,,*4D
(1604664729.372449) $GNGSA,A,3,04,07,09,,,,,,,,,,2.43,1.35,2.02,1*09
(1604664729.3747327) $GNGSA,A,3,75,65,66,76,74,,,,,,,,2.43,1.35,2.02,2*03
(1604664729.3765616) $GNGSA,A,3,,,,,,,,,,,,,2.43,1.35,2.02,3*01
(1604664729.3784416) $GNGSA,A,3,,,,,,,,,,,,,2.43,1.35,2.02,4*06
(1604664729.3808901) $GPGSV,1,1,03,04,32,068,12,07,59,169,28,09,70,050,23,1*5A
(1604664729.3834083) $GPGSV,1,1,03,04,32,068,20,07,59,169,21,09,70,050,26,6*50
(1604664729.3862536) $GLGSV,3,1,10,65,42,078,21,66,55,319,32,67,09,289,,72,04,095,,1*7E
(1604664729.3891704) $GLGSV,3,2,10,74,16,026,21,75,50,085,,76,31,152,30,81,29,259,,1*7B
(1604664729.3910286) $GLGSV,3,3,10,82,27,316,28,83,02,355,,1*72
(1604664729.393865) $GLGSV,3,1,10,65,42,078,17,66,55,319,22,67,09,289,,72,04,095,,3*78
(1604664729.3966644) $GLGSV,3,2,10,74,16,026,,75,50,085,28,76,31,152,29,81,29,259,,3*78
(1604664729.3985274) $GLGSV,3,3,10,82,27,316,14,83,02,355,,3*7F
(1604664729.3993418) $GAGSV,1,1,00,*44
(1604664729.4001508) $GAGSV,1,1,00,*44
(1604664729.4010048) $GBGSV,1,1,00,*47
(1604664729.401853) $GBGSV,1,1,00,*47
(1604664729.4040332) $GNGLL,4626.07293,N,01118.82740,E,121450.00,A,A*7D
(1604664730.36592) $GNRMC,121451.00,A,4626.07791,N,01118.82179,E,21.144,314.99,091120,,,A,V*35
(1604664730.3697343) $GNVTG,314.99,T,,M,21.144,N,39.159,K,A*20
(1604664730.3753695) $GNGGA,121451.00,4626.07791,N,01118.82179,E,1,08,1.35,236.0,M,46.0,M,,*48
(1604664730.3775184) $GNGSA,A,3,04,07,09,,,,,,,,,,2.43,1.35,2.02,1*09
(1604664730.379749) $GNGSA,A,3,75,65,66,76,74,,,,,,,,2.43,1.35,2.02,2*03
(1604664730.381622) $GNGSA,A,3,,,,,,,,,,,,,2.43,1.35,2.02,3*01
(1604664730.383484) $GNGSA,A,3,,,,,,,,,,,,,2.43,1.35,2.02,4*06
(1604664730.3859668) $GPGSV,1,1,03,04,32,068,20,07,59,169,29,09,70,050,24,1*5D
(1604664730.3884325) $GPGSV,1,1,03,04,32,068,22,07,59,169,20,09,70,050,28,6*5D
(1604664730.3913178) $GLGSV,3,1,10,65,42,078,20,66,55,319,31,67,09,289,,72,04,095,,1*7C
(1604664730.3942332) $GLGSV,3,2,10,74,16,026,18,75,50,085,29,76,31,152,30,81,29,259,,1*7A
(1604664730.3961186) $GLGSV,3,3,10,82,27,316,27,83,02,355,,1*7D
(1604664730.3990061) $GLGSV,3,1,10,65,42,078,20,66,55,319,24,67,09,289,,72,04,095,,3*7A
(1604664730.4018552) $GLGSV,3,2,10,74,16,026,,75,50,085,28,76,31,152,29,81,29,259,,3*78
(1604664730.4037368) $GLGSV,3,3,10,82,27,316,17,83,02,355,,3*7C
(1604664730.4045877) $GAGSV,1,1,00,*44
(1604664730.4054542) $GAGSV,1,1,00,*44
(1604664730.4062815) $GBGSV,1,1,00,*47
(1604664730.407122) $GBGSV,1,1,00,*47
(1604664730.4093254) $GNGLL,4626.07791,N,01118.82179,E,121451.00,A,A*77
(1604664731.3655667) $GNRMC,121452.00,A,4626.07944,N,01118.81417,E,19.077,275.55,091120,,,A,V*32
(1604664731.369319) $GNVTG,275.55,T,,M,19.077,N,35.330,K,A*2D
(1604664731.375148) $GNGGA,121452.00,4626.07944,N,01118.81417,E,1,08,1.35,234.6,M,46.0,M,,*47
(1604664731.3772738) $GNGSA,A,3,04,07,09,,,,,,,,,,2.43,1.35,2.02,1*09
(1604664731.379558) $GNGSA,A,3,75,65,66,76,74,,,,,,,,2.43,1.35,2.02,2*03
(1604664731.3814554) $GNGSA,A,3,,,,,,,,,,,,,2.43,1.35,2.02,3*01
(1604664731.383311) $GNGSA,A,3,,,,,,,,,,,,,2.43,1.35,2.02,4*06
(1604664731.3858395) $GPGSV,1,1,03,04,32,068,24,07,59,169,30,09,70,050,26,1*53
(1604664731.3882973) $GPGSV,1,1,03,04,32,068,25,07,59,169,19,09,70,050,29,6*51
(1604664731.3911269) $GLGSV,3,1,10,65,42,078,24,66,55,319,30,67,09,289,,72,04,095,,1*79
(1604664731.3940802) $GLGSV,3,2,10,74,16,026,14,75,50,085,31,76,32,152,31,81,29,259,,1*7D
(1604664731.3959079) $GLGSV,3,3,10,82,27,316,24,83,02,355,,1*7E
(1604664731.3988702) $GLGSV,3,1,10,65,42,078,22,66,55,319,24,67,09,289,,72,04,095,,3*78
(1604664731.40173) $GLGSV,3,2,10,74,16,026,,75,50,085,28,76,32,152,27,81,29,259,,3*75
(1604664731.403566) $GLGSV,3,3,10,82,27,316,19,83,02,355,,3*72
(1604664731.4043984) $GAGSV,1,1,00,*44
(1604664731.405258) $GAGSV,1,1,00,*44
(1604664731.406073) $GBGSV,1,1,00,*47
(1604664731.4069195) $GBGSV,1,1,00,*47
(1604664731.409126) $GNGLL,4626.07944,N,01118.81417,E,121452.00,A,A*7C
(1604664732.3638973) $GNRMC,121453.00,A,4626.07745,N,01118.80768,E,18.330,234.54,091120,,,A,V*33
(1604664732.3672054) $GNVTG,234.54,T,,M,18.330,N,33.947,K,A*24
(1604664732.3703742) $GNGGA,121453.00,4626.07745,N,01118.80768,E,1,08,1.54,234.8,M,46.0,M,,*4A
(1604664732.3724623) $GNGSA,A,3,04,07,09,,,,,,,,,,3.52,1.54,3.16,1*0B
(1604664732.3748047) $GNGSA,A,3,75,65,66,76,74,,,,,,,,3.52,1.54,3.16,2*01
(1604664732.3766658) $GNGSA,A,3,,,,,,,,,,,,,3.52,1.54,3.16,3*03
(1604664732.3785317) $GNGSA,A,3,,,,,,,,,,,,,3.52,1.54,3.16,4*04
(1604664732.3809993) $GPGSV,1,1,03,04,32,068,25,07,59,169,28,09,70,050,27,1*5A
(1604664732.3835118) $GPGSV,1,1,03,04,32,068,26,07,59,169,20,09,70,050,27,6*56
(1604664732.3863993) $GLGSV,3,1,10,65,42,078,32,66,55,319,20,67,09,289,,72,04,095,,1*7F
(1604664732.3893538) $GLGSV,3,2,10,74,16,026,27,75,50,085,31,76,32,152,29,81,29,259,,1*74
(1604664732.3912506) $GLGSV,3,3,10,82,27,316,21,83,02,355,,1*7B
(1604664732.3940845) $GLGSV,3,1,10,65,42,078,21,66,55,319,27,67,09,289,,72,04,095,,3*78
(1604664732.3968976) $GLGSV,3,2,10,74,16,026,,75,50,085,27,76,32,152,25,81,29,259,,3*78
(1604664732.3987663) $GLGSV,3,3,10,82,27,316,20,83,02,355,,3*78
(1604664732.399585) $GAGSV,1,1,00,*44
(1604664732.4004264) $GAGSV,1,1,00,*44
(1604664732.4013097) $GBGSV,1,1,00,*47
(1604664732.4021308) $GBGSV,1,1,00,*47
(1604664732.404289) $GNGLL,4626.07745,N,01118.80768,E,121453.00,A,A*78
(1604664733.3647516) $GNRMC,121454.00,A,4626.07248,N,01118.80404,E,22.049,197.98,091120,,,A,V*3B
(1604664733.367713) $GNVTG,197.98,T,,M,22.049,N,40.835,K,A*2A
(1604664733.3711212) $GNGGA,121454.00,4626.07248,N,01118.80404,E,1,08,1.35,234.6,M,46.0,M,,*45
(1604664733.3732858) $GNGSA,A,3,04,07,09,,,,,,,,,,2.43,1.35,2.02,1*09
(1604664733.3755574) $GNGSA,A,3,75,65,66,76,74,,,,,,,,2.43,1.35,2.02,2*03
(1604664733.3774352) $GNGSA,A,3,,,,,,,,,,,,,2.43,1.35,2.02,3*01
(1604664733.3792796) $GNGSA,A,3,,,,,,,,,,,,,2.43,1.35,2.02,4*06
(1604664733.3817558) $GPGSV,1,1,03,04,32,068,25,07,59,169,28,09,70,050,33,1*5F
(1604664733.3842177) $GPGSV,1,1,03,04,32,068,26,07,59,169,20,09,70,050,25,6*54
(1604664733.387127) $GLGSV,3,1,10,65,42,078,30,66,55,319,24,67,09,289,,72,04,095,,1*79
(1604664733.390072) $GLGSV,3,2,10,74,16,026,28,75,50,085,32,76,32,152,30,81,29,259,,1*70
(1604664733.3919601) $GLGSV,3,3,10,82,27,316,17,83,02,355,,1*7E
(1604664733.3948143) $GLGSV,3,1,10,65,42,078,19,66,55,319,27,67,09,289,,72,04,095,,3*73
(1604664733.397625) $GLGSV,3,2,10,74,16,026,,75,50,085,26,76,32,152,23,81,29,259,,3*7F
(1604664733.399513) $GLGSV,3,3,10,82,27,316,24,83,02,355,,3*7C
(1604664733.4003248) $GAGSV,1,1,00,*44
(1604664733.4011705) $GAGSV,1,1,00,*44
(1604664733.402017) $GBGSV,1,1,00,*47
(1604664733.4028363) $GBGSV,1,1,00,*47
(1604664733.4050486) $GNGLL,4626.07248,N,01118.80404,E,121454.00,A,A*7E
(1604664734.3655417) $GNRMC,121455.00,A,4626.06656,N,01118.80167,E,22.565,192.25,091120,,,A,V*38
(1604664734.3680105) $GNVTG,192.25,T,,M,22.565,N,41.790,K,A*23
(1604664734.3711495) $GNGGA,121455.00,4626.06656,N,01118.80167,E,1,08,1.35,233.4,M,46.0,M,,*4B
(1604664734.3732915) $GNGSA,A,3,04,07,09,,,,,,,,,,2.43,1.35,2.02,1*09
(1604664734.375608) $GNGSA,A,3,75,65,66,76,74,,,,,,,,2.43,1.35,2.02,2*03
(1604664734.3774734) $GNGSA,A,3,,,,,,,,,,,,,2.43,1.35,2.02,3*01
(1604664734.3793616) $GNGSA,A,3,,,,,,,,,,,,,2.43,1.35,2.02,4*06
(1604664734.3818648) $GPGSV,1,1,03,04,32,068,25,07,59,169,29,09,70,050,33,1*5E
(1604664734.3843827) $GPGSV,1,1,03,04,32,068,26,07,59,169,21,09,70,050,25,6*55
(1604664734.3872786) $GLGSV,3,1,10,65,42,078,29,66,55,319,26,67,09,289,,72,04,095,,1*73
(1604664734.3902056) $GLGSV,3,2,10,74,16,026,28,75,50,085,31,76,32,152,32,81,29,259,,1*71
(1604664734.3920455) $GLGSV,3,3,10,82,27,316,16,83,02,355,,1*7F
(1604664734.3948827) $GLGSV,3,1,10,65,42,078,18,66,55,319,26,67,09,289,,72,04,095,,3*73
(1604664734.3977208) $GLGSV,3,2,10,74,16,026,,75,50,085,25,76,32,152,21,81,29,259,,3*7E
(1604664734.3995612) $GLGSV,3,3,10,82,27,316,25,83,02,355,,3*7D
(1604664734.4003735) $GAGSV,1,1,00,*44
(1604664734.401218) $GAGSV,1,1,00,*44
(1604664734.4020557) $GBGSV,1,1,00,*47
(1604664734.402909) $GBGSV,1,1,00,*47
(1604664734.4050844) $GNGLL,4626.06656,N,01118.80167,E,121455.00,A,A*75
(1604664735.365566) $GNRMC,121456.00,A,4626.06049,N,01118.79967,E,22.736,191.33,091120,,,A,V*3D
(1604664735.3674858) $GNVTG,191.33,T,,M,22.736,N,42.107,K,A*28
(1604664735.3706744) $GNGGA,121456.00,4626.06049,N,01118.79967,E,1,08,1.35,232.5,M,46.0,M,,*4E
(1604664735.3727913) $GNGSA,A,3,04,07,09,,,,,,,,,,2.43,1.35,2.02,1*09
(1604664735.375089) $GNGSA,A,3,75,65,66,76,74,,,,,,,,2.43,1.35,2.02,2*03
(1604664735.376919) $GNGSA,A,3,,,,,,,,,,,,,2.43,1.35,2.02,3*01
(1604664735.3787775) $GNGSA,A,3,,,,,,,,,,,,,2.43,1.35,2.02,4*06
(1604664735.3812814) $GPGSV,1,1,03,04,32,068,27,07,59,169,29,09,70,050,32,1*5D
(1604664735.3837738) $GPGSV,1,1,03,04,32,068,25,07,59,169,21,09,70,050,24,6*57
(1604664735.3866553) $GLGSV,3,1,10,65,42,078,28,66,55,319,27,67,09,289,,72,04,095,,1*73
(1604664735.3895888) $GLGSV,3,2,10,74,16,026,28,75,50,085,31,76,32,152,31,81,29,259,,1*72
(1604664735.3914316) $GLGSV,3,3,10,82,27,316,18,83,02,355,,1*71
(1604664735.3942711) $GLGSV,3,1,10,65,42,078,19,66,55,319,26,67,09,289,,72,04,095,,3*72
(1604664735.3970776) $GLGSV,3,2,10,74,16,026,,75,50,085,24,76,32,152,19,81,29,259,,3*74
(1604664735.3989685) $GLGSV,3,3,10,82,27,316,26,83,02,355,,3*7E
(1604664735.3997931) $GAGSV,1,1,00,*44
(1604664735.4006042) $GAGSV,1,1,00,*44
(1604664735.4014485) $GBGSV,1,1,00,*47
(1604664735.4022653) $GBGSV,1,1,00,*47
(1604664735.4044712) $GNGLL,4626.06049,N,01118.79967,E,121456.00,A,A*70
(1604664736.3637583) $GNRMC,121457.00,A,4626.05481,N,01118.79791,E,20.482,191.26,091120,,,A,V*32
(1604664736.3661911) $GNVTG,191.26,T,,M,20.482,N,37.933,K,A*2F
(1604664736.3693714) $GNGGA,121457.00,4626.05481,N,01118.79791,E,1,08,1.35,232.0,M,46.0,M,,*4E
(1604664736.371474) $GNGSA,A,3,04,07,09,,,,,,,,,,2.43,1.35,2.02,1*09
(1604664736.373781) $GNGSA,A,3,75,65,66,76,74,,,,,,,,2.43,1.35,2.02,2*03
(1604664736.3756251) $GNGSA,A,3,,,,,,,,,,,,,2.43,1.35,2.02,3*01
(1604664736.3775125) $GNGSA,A,3,,,,,,,,,,,,,2.43,1.35,2.02,4*06
(1604664736.3799562) $GPGSV,1,1,03,04,32,068,27,07,59,169,29,09,70,050,32,1*5D
(1604664736.3824496) $GPGSV,1,1,03,04,32,068,25,07,59,169,21,09,70,050,25,6*56
(1604664736.385348) $GLGSV,3,1,10,65,42,078,28,66,55,319,27,67,09,289,,72,04,095,,1*73
(1604664736.3883297) $GLGSV,3,2,10,74,16,026,27,75,50,085,31,76,32,152,32,81,29,258,,1*7F
(1604664736.3902047) $GLGSV,3,3,10,82,27,316,19,83,02,355,,1*70
(1604664736.3930469) $GLGSV,3,1,10,65,42,078,18,66,55,319,26,67,09,289,,72,04,095,,3*73
(1604664736.3959122) $GLGSV,3,2,10,74,16,026,,75,50,085,24,76,32,152,19,81,29,258,,3*75
(1604664736.397781) $GLGSV,3,3,10,82,27,316,26,83,02,355,,3*7E
(1604664736.3986576) $GAGSV,1,1,00,*44
(1604664736.3994672) $GAGSV,1,1,00,*44
(1604664736.4002962) $GBGSV,1,1,00,*47
(1604664736.4011676) $GBGSV,1,1,00,*47
(1604664736.4033651) $GNGLL,4626.05481,N,01118.79791,E,121457.00,A,A*75
(1604664737.3641388) $GNRMC,121458.00,A,4626.04979,N,01118.79634,E,17.798,191.50,091120,,,A,V*35
(1604664737.3660254) $GNVTG,191.50,T,,M,17.798,N,32.962,K,A*23
(1604664737.3691769) $GNGGA,121458.00,4626.04979,N,01118.79634,E,1,08,1.35,231.6,M,46.0,M,,*41
(1604664737.3712842) $GNGSA,A,3,04,07,09,,,,,,,,,,2.43,1.35,2.02,1*09
(1604664737.3736186) $GNGSA,A,3,75,65,66,76,74,,,,,,,,2.43,1.35,2.02,2*03
(1604664737.3754926) $GNGSA,A,3,,,,,,,,,,,,,2.43,1.35,2.02,3*01
(1604664737.3773572) $GNGSA,A,3,,,,,,,,,,,,,2.43,1.35,2.02,4*06
(1604664737.3798032) $GPGSV,1,1,03,04,32,068,26,07,59,169,29,09,70,050,32,1*5C
(1604664737.382292) $GPGSV,1,1,03,04,32,068,25,07,59,169,21,09,70,050,24,6*57
(1604664737.38517) $GLGSV,3,1,11,65,42,078,27,66,55,319,27,67,09,289,,72,04,095,,1*7D
(1604664737.388109) $GLGSV,3,2,11,74,16,026,27,75,50,085,31,76,32,152,32,81,29,258,,1*7E
(1604664737.3904235) $GLGSV,3,3,11,82,27,316,20,83,02,355,,88,05,213,,1*4E
(1604664737.3932958) $GLGSV,3,1,11,65,42,078,18,66,55,319,26,67,09,289,,72,04,095,,3*72
(1604664737.396124) $GLGSV,3,2,11,74,16,026,,75,50,085,24,76,32,152,18,81,29,258,,3*75
(1604664737.3984673) $GLGSV,3,3,11,82,27,316,27,83,02,355,,88,05,213,,3*4B
(1604664737.399289) $GAGSV,1,1,00,*44
(1604664737.4000926) $GAGSV,1,1,00,*44
(1604664737.4009123) $GBGSV,1,1,00,*47
(1604664737.4017713) $GBGSV,1,1,00,*47
(1604664737.4039576) $GNGLL,4626.04979,N,01118.79634,E,121458.00,A,A*7F
(1604664738.3656433) $GNRMC,121459.00,A,4626.04544,N,01118.79487,E,15.553,192.89,091120,,,A,V*3C
(1604664738.369509) $GNVTG,192.89,T,,M,15.553,N,28.804,K,A*29
(1604664738.374898) $GNGGA,121459.00,4626.04544,N,01118.79487,E,1,08,1.36,231.3,M,46.0,M,,*4E
(1604664738.376978) $GNGSA,A,3,04,07,09,,,,,,,,,,2.43,1.36,2.02,1*0A
(1604664738.3792653) $GNGSA,A,3,75,65,66,76,74,,,,,,,,2.43,1.36,2.02,2*00
(1604664738.381138) $GNGSA,A,3,,,,,,,,,,,,,2.43,1.36,2.02,3*02
(1604664738.3830159) $GNGSA,A,3,,,,,,,,,,,,,2.43,1.36,2.02,4*05
(1604664738.3855028) $GPGSV,1,1,03,04,32,068,26,07,59,169,29,09,70,050,32,1*5C
(1604664738.3880084) $GPGSV,1,1,03,04,32,068,26,07,59,169,21,09,70,050,24,6*54
(1604664738.3908517) $GLGSV,3,1,11,65,42,078,27,66,55,319,27,67,09,289,,72,04,095,,1*7D
(1604664738.3938503) $GLGSV,3,2,11,74,16,026,28,75,50,085,31,76,32,152,32,81,29,258,,1*71
(1604664738.3961377) $GLGSV,3,3,11,82,27,316,20,83,02,355,,88,05,213,,1*4E
(1604664738.399013) $GLGSV,3,1,11,65,42,078,18,66,55,319,26,67,09,289,,72,04,095,,3*72
(1604664738.401873) $GLGSV,3,2,11,74,16,026,,75,50,085,25,76,32,152,17,81,29,258,,3*7B
(1604664738.404179) $GLGSV,3,3,11,82,27,316,27,83,02,355,,88,05,213,,3*4B
(1604664738.4050412) $GAGSV,1,1,00,*44
(1604664738.4058907) $GAGSV,1,1,00,*44
(1604664738.4067404) $GBGSV,1,1,00,*47
(1604664738.4075863) $GBGSV,1,1,00,*47
(1604664738.409805) $GNGLL,4626.04544,N,01118.79487,E,121459.00,A,A*76
(1604664739.3650231) $GNRMC,121500.00,A,4626.04195,N,01118.79368,E,12.043,191.92,091120,,,A,V*35
(1604664739.3693922) $GNVTG,191.92,T,,M,12.043,N,22.304,K,A*22
(1604664739.3743262) $GNGGA,121500.00,4626.04195,N,01118.79368,E,1,08,1.36,231.0,M,46.0,M,,*4E
(1604664739.3764462) $GNGSA,A,3,04,07,09,,,,,,,,,,2.43,1.36,2.02,1*0A
(1604664739.3787282) $GNGSA,A,3,75,65,66,76,74,,,,,,,,2.43,1.36,2.02,2*00
(1604664739.3805516) $GNGSA,A,3,,,,,,,,,,,,,2.43,1.36,2.02,3*02
(1604664739.3824487) $GNGSA,A,3,,,,,,,,,,,,,2.43,1.36,2.02,4*05
(1604664739.3849006) $GPGSV,1,1,03,04,32,068,27,07,59,169,29,09,70,050,32,1*5D
(1604664739.3874059) $GPGSV,1,1,03,04,32,068,25,07,59,169,21,09,70,050,25,6*56
(1604664739.390297) $GLGSV,3,1,11,65,42,078,28,66,55,319,27,67,09,289,,72,04,095,,1*72
(1604664739.393261) $GLGSV,3,2,11,74,16,026,28,75,50,085,31,76,32,152,32,81,29,258,,1*71
(1604664739.3955412) $GLGSV,3,3,11,82,27,316,20,83,02,355,,88,05,213,,1*4E
(1604664739.3983953) $GLGSV,3,1,11,65,42,078,19,66,55,319,26,67,09,289,,72,04,095,,3*73
(1604664739.4012601) $GLGSV,3,2,11,74,16,026,,75,50,085,24,76,32,152,18,81,29,258,,3*75
(1604664739.4035795) $GLGSV,3,3,11,82,27,316,27,83,02,355,,88,05,213,,3*4B
(1604664739.4043963) $GAGSV,1,1,00,*44
(1604664739.4052477) $GAGSV,1,1,00,*44
(1604664739.4060724) $GBGSV,1,1,00,*47
(1604664739.4068866) $GBGSV,1,1,00,*47
(1604664739.409061) $GNGLL,4626.04195,N,01118.79368,E,121500.00,A,A*75
(1604664740.365918) $GNRMC,121501.00,A,4626.03969,N,01118.79286,E,7.156,193.07,091120,,,A,V*06
(1604664740.3678176) $GNVTG,193.07,T,,M,7.156,N,13.252,K,A*1D
(1604664740.3710268) $GNGGA,121501.00,4626.03969,N,01118.79286,E,1,08,1.36,230.9,M,46.0,M,,*4A
(1604664740.373184) $GNGSA,A,3,04,07,09,,,,,,,,,,2.43,1.36,2.02,1*0A
(1604664740.3754475) $GNGSA,A,3,75,65,66,76,74,,,,,,,,2.43,1.36,2.02,2*00
(1604664740.377314) $GNGSA,A,3,,,,,,,,,,,,,2.43,1.36,2.02,3*02
(1604664740.3791766) $GNGSA,A,3,,,,,,,,,,,,,2.43,1.36,2.02,4*05
(1604664740.3816566) $GPGSV,1,1,03,04,32,068,25,07,59,169,29,09,70,050,33,1*5E
(1604664740.3840904) $GPGSV,1,1,03,04,32,068,26,07,59,169,21,09,70,050,25,6*55
(1604664740.386985) $GLGSV,3,1,11,65,42,078,28,66,55,319,27,67,09,289,,72,04,095,,1*72
(1604664740.3899782) $GLGSV,3,2,11,74,16,026,28,75,50,085,32,76,32,152,32,81,29,258,,1*72
(1604664740.3923278) $GLGSV,3,3,11,82,27,316,19,83,02,355,,88,05,213,,1*44
(1604664740.3952007) $GLGSV,3,1,11,65,42,078,17,66,55,319,26,67,09,289,,72,04,095,,3*7D
(1604664740.3980618) $GLGSV,3,2,11,74,16,026,,75,50,085,24,76,32,152,19,81,29,258,,3*74
(1604664740.400343) $GLGSV,3,3,11,82,27,316,27,83,02,355,,88,05,213,,3*4B
(1604664740.4012291) $GAGSV,1,1,00,*44
(1604664740.4020834) $GAGSV,1,1,00,*44
(1604664740.4028955) $GBGSV,1,1,00,*47
(1604664740.4037097) $GBGSV,1,1,00,*47
(1604664740.4059079) $GNGLL,4626.03969,N,01118.79286,E,121501.00,A,A*79
(1604664741.3656425) $GNRMC,121502.00,A,4626.03885,N,01118.79246,E,1.683,193.18,091120,,,A,V*0D
(1604664741.3681142) $GNVTG,193.18,T,,M,1.683,N,3.117,K,A*29
(1604664741.3712964) $GNGGA,121502.00,4626.03885,N,01118.79246,E,1,08,1.36,230.7,M,46.0,M,,*48
(1604664741.3734167) $GNGSA,A,3,04,07,09,,,,,,,,,,2.43,1.36,2.02,1*0A
(1604664741.3757358) $GNGSA,A,3,75,65,66,76,74,,,,,,,,2.43,1.36,2.02,2*00
(1604664741.3776283) $GNGSA,A,3,,,,,,,,,,,,,2.43,1.36,2.02,3*02
(1604664741.3794587) $GNGSA,A,3,,,,,,,,,,,,,2.43,1.36,2.02,4*05
(1604664741.3819563) $GPGSV,1,1,03,04,32,068,23,07,59,169,29,09,70,050,33,1*58
(1604664741.3844333) $GPGSV,1,1,03,04,32,068,26,07,59,169,20,09,70,050,24,6*55
(1604664741.3873217) $GLGSV,3,1,11,65,42,078,28,66,55,319,28,67,09,289,,72,04,095,,1*7D
(1604664741.3903062) $GLGSV,3,2,11,74,16,026,28,75,50,085,32,76,32,152,32,81,29,258,,1*72
(1604664741.3926206) $GLGSV,3,3,11,82,27,316,17,83,02,355,,88,05,213,,1*4A
(1604664741.395474) $GLGSV,3,1,11,65,42,078,17,66,55,319,26,67,09,289,,72,04,095,,3*7D
(1604664741.398317) $GLGSV,3,2,11,74,16,026,,75,50,085,25,76,32,152,19,81,29,258,,3*75
(1604664741.4006054) $GLGSV,3,3,11,82,27,316,26,83,02,355,,88,05,213,,3*4A
(1604664741.401454) $GAGSV,1,1,00,*44
(1604664741.4022756) $GAGSV,1,1,00,*44
(1604664741.4031146) $GBGSV,1,1,00,*47
(1604664741.403955) $GBGSV,1,1,00,*47
(1604664741.4061427) $GNGLL,4626.03885,N,01118.79246,E,121502.00,A,A*75
(1604664742.3644304) $GNRMC,121503.00,A,4626.03874,N,01118.79238,E,0.075,,091120,,,A,V*19
(1604664742.3663774) $GNVTG,,T,,M,0.075,N,0.140,K,A*3A
(1604664742.3695858) $GNGGA,121503.00,4626.03874,N,01118.79238,E,1,08,1.36,230.5,M,46.0,M,,*4C
(1604664742.3716886) $GNGSA,A,3,04,07,09,,,,,,,,,,2.43,1.36,2.02,1*0A
(1604664742.3739738) $GNGSA,A,3,75,65,66,76,74,,,,,,,,2.43,1.36,2.02,2*00
(1604664742.3758354) $GNGSA,A,3,,,,,,,,,,,,,2.43,1.36,2.02,3*02
(1604664742.377731) $GNGSA,A,3,,,,,,,,,,,,,2.43,1.36,2.02,4*05
(1604664742.3801765) $GPGSV,1,1,03,04,32,068,22,07,59,169,29,09,70,050,33,1*59
(1604664742.3826725) $GPGSV,1,1,03,04,32,068,27,07,59,169,21,09,70,050,25,6*54
(1604664742.3855577) $GLGSV,3,1,11,65,42,078,28,66,55,319,28,67,09,289,,72,04,095,,1*7D
(1604664742.3884623) $GLGSV,3,2,11,74,16,026,29,75,50,085,32,76,32,152,32,81,29,258,,1*73
(1604664742.3908226) $GLGSV,3,3,11,82,27,316,16,83,02,355,,88,05,213,,1*4B
(1604664742.393724) $GLGSV,3,1,11,65,42,078,17,66,55,319,26,67,09,289,,72,04,095,,3*7D
(1604664742.396582) $GLGSV,3,2,11,74,16,026,,75,50,085,24,76,32,152,17,81,29,258,,3*7A
(1604664742.398922) $GLGSV,3,3,11,82,27,316,27,83,02,355,,88,05,213,,3*4B
(1604664742.3997838) $GAGSV,1,1,00,*44
(1604664742.4005954) $GAGSV,1,1,00,*44
(1604664742.401444) $GBGSV,1,1,00,*47
(1604664742.4023044) $GBGSV,1,1,00,*47
(1604664742.4044845) $GNGLL,4626.03874,N,01118.79238,E,121503.00,A,A*73
(1604664743.3652074) $GNRMC,121504.00,A,4626.03877,N,01118.79240,E,0.073,,091120,,,A,V*14
(1604664743.3667917) $GNVTG,,T,,M,0.073,N,0.136,K,A*3D
(1604664743.3699768) $GNGGA,121504.00,4626.03877,N,01118.79240,E,1,08,1.36,230.5,M,46.0,M,,*47
(1604664743.3720741) $GNGSA,A,3,04,07,09,,,,,,,,,,2.43,1.36,2.02,1*0A
(1604664743.374385) $GNGSA,A,3,75,65,66,76,74,,,,,,,,2.43,1.36,2.02,2*00
(1604664743.376246) $GNGSA,A,3,,,,,,,,,,,,,2.43,1.36,2.02,3*02
(1604664743.3781068) $GNGSA,A,3,,,,,,,,,,,,,2.43,1.36,2.02,4*05
(1604664743.3805852) $GPGSV,1,1,03,04,31,068,22,07,59,169,29,09,70,050,33,1*5A
(1604664743.383091) $GPGSV,1,1,03,04,31,068,27,07,59,169,21,09,70,050,25,6*57
(1604664743.3859684) $GLGSV,3,1,11,65,42,078,29,66,55,319,28,67,09,289,,72,04,095,,1*7C
(1604664743.38893) $GLGSV,3,2,11,74,16,026,30,75,50,085,33,76,32,152,33,81,29,258,,1*7B
(1604664743.3912764) $GLGSV,3,3,11,82,27,316,17,83,02,355,,88,05,213,,1*4A
(1604664743.3941636) $GLGSV,3,1,11,65,42,078,17,66,55,319,26,67,09,289,,72,04,095,,3*7D
(1604664743.3970098) $GLGSV,3,2,11,74,16,026,,75,50,085,23,76,32,152,18,81,29,258,,3*72
(1604664743.399316) $GLGSV,3,3,11,82,27,316,27,83,02,355,,88,05,213,,3*4B
(1604664743.4001377) $GAGSV,1,1,00,*44
(1604664743.4009583) $GAGSV,1,1,00,*44
(1604664743.4018288) $GBGSV,1,1,00,*47
(1604664743.402669) $GBGSV,1,1,00,*47
(1604664743.404833) $GNGLL,4626.03877,N,01118.79240,E,121504.00,A,A*78
(1604664744.3650105) $GNRMC,121505.00,A,4626.03876,N,01118.79244,E,0.029,,091120,,,A,V*1F
(1604664744.3670912) $GNVTG,,T,,M,0.029,N,0.054,K,A*37
(1604664744.370263) $GNGGA,121505.00,4626.03876,N,01118.79244,E,1,08,1.36,230.8,M,46.0,M,,*4E
(1604664744.3723238) $GNGSA,A,3,04,07,09,,,,,,,,,,2.43,1.36,2.02,1*0A
(1604664744.3745856) $GNGSA,A,3,75,65,66,76,74,,,,,,,,2.43,1.36,2.02,2*00
(1604664744.3764565) $GNGSA,A,3,,,,,,,,,,,,,2.43,1.36,2.02,3*02
(1604664744.3783283) $GNGSA,A,3,,,,,,,,,,,,,2.43,1.36,2.02,4*05
(1604664744.3808339) $GPGSV,1,1,03,04,31,068,21,07,59,169,28,09,70,050,33,1*58
(1604664744.383354) $GPGSV,1,1,03,04,31,068,27,07,59,169,22,09,70,050,25,6*54
(1604664744.3862262) $GLGSV,3,1,11,65,42,078,29,66,55,319,29,67,09,289,,72,04,095,,1*7D
(1604664744.3892286) $GLGSV,3,2,11,74,16,026,30,75,50,085,33,76,32,152,33,81,29,258,,1*7B
(1604664744.39152) $GLGSV,3,3,11,82,27,316,17,83,02,355,,88,05,213,,1*4A
(1604664744.3943975) $GLGSV,3,1,11,65,42,078,17,66,55,319,25,67,09,289,,72,04,095,,3*7E
(1604664744.3972511) $GLGSV,3,2,11,74,16,026,,75,50,085,24,76,32,152,20,81,29,258,,3*7E
(1604664744.3995566) $GLGSV,3,3,11,82,27,316,27,83,02,355,,88,05,213,,3*4B
(1604664744.4003685) $GAGSV,1,1,00,*44
(1604664744.4012063) $GAGSV,1,1,00,*44
(1604664744.40206) $GBGSV,1,1,00,*47
(1604664744.4029067) $GBGSV,1,1,00,*47
(1604664744.4050825) $GNGLL,4626.03876,N,01118.79244,E,121505.00,A,A*7C
(1604664745.366291) $GNRMC,121506.00,A,4626.03876,N,01118.79249,E,0.019,,091120,,,A,V*12
(1604664745.3678386) $GNVTG,,T,,M,0.019,N,0.034,K,A*32
(1604664745.3709934) $GNGGA,121506.00,4626.03876,N,01118.79249,E,1,08,1.36,230.9,M,46.0,M,,*41
(1604664745.3731205) $GNGSA,A,3,04,07,09,,,,,,,,,,2.43,1.36,2.02,1*0A
(1604664745.3754072) $GNGSA,A,3,75,65,66,76,74,,,,,,,,2.43,1.36,2.02,2*00
(1604664745.3772638) $GNGSA,A,3,,,,,,,,,,,,,2.43,1.36,2.02,3*02
(1604664745.3791206) $GNGSA,A,3,,,,,,,,,,,,,2.43,1.36,2.02,4*05
(1604664745.3816092) $GPGSV,1,1,03,04,31,068,21,07,59,169,28,09,70,050,33,1*58
(1604664745.3840766) $GPGSV,1,1,03,04,31,068,27,07,59,169,22,09,70,050,25,6*54
(1604664745.3869352) $GLGSV,3,1,11,65,42,078,29,66,55,319,29,67,09,289,,72,04,095,,1*7D
(1604664745.3899007) $GLGSV,3,2,11,74,16,026,30,75,50,085,32,76,32,152,33,81,29,258,,1*7A
(1604664745.3922098) $GLGSV,3,3,11,82,27,316,17,83,02,355,,88,05,213,,1*4A
(1604664745.3950465) $GLGSV,3,1,11,65,42,078,17,66,55,319,25,67,09,289,,72,04,095,,3*7E
(1604664745.397969) $GLGSV,3,2,11,74,16,026,,75,50,085,23,76,32,152,20,81,29,258,,3*79
(1604664745.4002633) $GLGSV,3,3,11,82,27,316,27,83,02,355,,88,05,213,,3*4B
(1604664745.4010844) $GAGSV,1,1,00,*44
(1604664745.401934) $GAGSV,1,1,00,*44
(1604664745.4027672) $GBGSV,1,1,00,*47
(1604664745.4036047) $GBGSV,1,1,00,*47
(1604664745.405829) $GNGLL,4626.03876,N,01118.79249,E,121506.00,A,A*72
(1604664746.3645716) $GNRMC,121507.00,A,4626.03875,N,01118.79253,E,0.041,,091120,,,A,V*16
(1604664746.3674984) $GNVTG,,T,,M,0.041,N,0.075,K,A*3A
(1604664746.3707016) $GNGGA,121507.00,4626.03875,N,01118.79253,E,1,08,1.36,231.0,M,46.0,M,,*40
(1604664746.3727753) $GNGSA,A,3,04,07,09,,,,,,,,,,2.43,1.36,2.02,1*0A
(1604664746.3750834) $GNGSA,A,3,75,65,66,76,74,,,,,,,,2.43,1.36,2.02,2*00
(1604664746.3769538) $GNGSA,A,3,,,,,,,,,,,,,2.43,1.36,2.02,3*02
(1604664746.378835) $GNGSA,A,3,,,,,,,,,,,,,2.43,1.36,2.02,4*05
(1604664746.381324) $GPGSV,1,1,03,04,31,068,21,07,59,169,29,09,70,050,32,1*58
(1604664746.3837986) $GPGSV,1,1,03,04,31,068,27,07,59,169,22,09,70,050,26,6*57
(1604664746.3866525) $GLGSV,3,1,11,65,42,078,29,66,55,319,29,67,09,289,,72,04,095,,1*7D
(1604664746.3896005) $GLGSV,3,2,11,74,16,026,30,75,50,085,33,76,32,152,32,81,29,258,,1*7A
(1604664746.3918622) $GLGSV,3,3,11,82,27,316,19,83,02,355,,88,05,213,,1*44
(1604664746.3947537) $GLGSV,3,1,11,65,42,078,17,66,55,319,26,67,09,289,,72,04,095,,3*7D
(1604664746.3975933) $GLGSV,3,2,11,74,16,026,,75,50,085,23,76,32,152,20,81,29,258,,3*79
(1604664746.3998778) $GLGSV,3,3,11,82,27,316,27,83,02,355,,88,05,213,,3*4B
(1604664746.4006948) $GAGSV,1,1,00,*44
(1604664746.4015603) $GAGSV,1,1,00,*44
(1604664746.4023998) $GBGSV,1,1,00,*47
(1604664746.4032345) $GBGSV,1,1,00,*47
(1604664746.405433) $GNGLL,4626.03875,N,01118.79253,E,121507.00,A,A*7B
(1604664747.365405) $GNRMC,121508.00,A,4626.03875,N,01118.79254,E,0.020,,091120,,,A,V*19
(1604664747.3685374) $GNVTG,,T,,M,0.020,N,0.036,K,A*3A
(1604664747.3727052) $GNGGA,121508.00,4626.03875,N,01118.79254,E,1,08,1.36,231.1,M,46.0,M,,*49
(1604664747.3748608) $GNGSA,A,3,04,07,09,,,,,,,,,,2.43,1.36,2.02,1*0A
(1604664747.3772304) $GNGSA,A,3,75,65,66,76,74,,,,,,,,2.43,1.36,2.02,2*00
(1604664747.3790743) $GNGSA,A,3,,,,,,,,,,,,,2.43,1.36,2.02,3*02
(1604664747.380952) $GNGSA,A,3,,,,,,,,,,,,,2.43,1.36,2.02,4*05
(1604664747.3834846) $GPGSV,1,1,03,04,31,068,21,07,59,169,29,09,70,050,33,1*59
(1604664747.3860333) $GPGSV,1,1,03,04,31,068,27,07,59,169,21,09,70,050,25,6*57
(1604664747.3888686) $GLGSV,3,1,11,65,42,078,29,66,55,319,28,67,09,289,,72,04,095,,1*7C
(1604664747.391827) $GLGSV,3,2,11,74,16,026,30,75,50,085,33,76,32,152,32,81,29,258,,1*7A
(1604664747.3941307) $GLGSV,3,3,11,82,27,316,19,83,02,355,,88,05,213,,1*44
(1604664747.3969162) $GLGSV,3,1,11,65,42,078,17,66,55,319,26,67,09,289,,72,04,095,,3*7D
(1604664747.3997753) $GLGSV,3,2,11,74,16,026,,75,50,085,23,76,32,152,20,81,29,258,,3*79
(1604664747.4020858) $GLGSV,3,3,11,82,27,316,27,83,02,355,,88,05,213,,3*4B
(1604664747.4029117) $GAGSV,1,1,00,*44
(1604664747.4037337) $GAGSV,1,1,00,*44
(1604664747.4045432) $GBGSV,1,1,00,*47
(1604664747.4053912) $GBGSV,1,1,00,*47
(1604664747.407567) $GNGLL,4626.03875,N,01118.79254,E,121508.00,A,A*73
(1604664748.3635175) $GNRMC,121509.00,A,4626.03875,N,01118.79261,E,0.074,,091120,,,A,V*1F
(1604664748.3667533) $GNVTG,,T,,M,0.074,N,0.137,K,A*3B
(1604664748.3727574) $GNGGA,121509.00,4626.03875,N,01118.79261,E,1,08,1.36,231.3,M,46.0,M,,*4C
(1604664748.3749278) $GNGSA,A,3,04,07,09,,,,,,,,,,2.43,1.36,2.02,1*0A
(1604664748.377216) $GNGSA,A,3,75,65,66,76,74,,,,,,,,2.43,1.36,2.02,2*00
(1604664748.3790786) $GNGSA,A,3,,,,,,,,,,,,,2.43,1.36,2.02,3*02
(1604664748.380918) $GNGSA,A,3,,,,,,,,,,,,,2.43,1.36,2.02,4*05
(1604664748.383432) $GPGSV,1,1,03,04,31,068,21,07,59,169,29,09,70,050,33,1*59
(1604664748.3859403) $GPGSV,1,1,03,04,31,068,27,07,59,169,22,09,70,050,25,6*54
(1604664748.3888626) $GLGSV,3,1,11,65,42,078,29,66,55,319,28,67,09,289,,72,04,095,,1*7C
(1604664748.391804) $GLGSV,3,2,11,74,16,026,31,75,50,085,33,76,32,152,32,81,29,258,,1*7B
(1604664748.3941143) $GLGSV,3,3,11,82,27,316,19,83,02,355,,88,05,213,,1*44
(1604664748.396914) $GLGSV,3,1,11,65,42,078,17,66,55,319,26,67,09,289,,72,04,095,,3*7D
(1604664748.3997638) $GLGSV,3,2,11,74,16,026,,75,50,085,23,76,32,152,20,81,29,258,,3*79
(1604664748.4020894) $GLGSV,3,3,11,82,27,316,26,83,02,355,,88,05,213,,3*4A
(1604664748.402928) $GAGSV,1,1,00,*44
(1604664748.4037793) $GAGSV,1,1,00,*44
(1604664748.4045894) $GBGSV,1,1,00,*47
(1604664748.405444) $GBGSV,1,1,00,*47
(1604664748.4076061) $GNGLL,4626.03875,N,01118.79261,E,121509.00,A,A*74
(1604664749.36419) $GNRMC,121510.00,A,4626.03875,N,01118.79262,E,0.059,,091120,,,A,V*1B
(1604664749.365805) $GNVTG,,T,,M,0.059,N,0.108,K,A*38
(1604664749.3689482) $GNGGA,121510.00,4626.03875,N,01118.79262,E,1,08,1.36,231.3,M,46.0,M,,*47
(1604664749.3710895) $GNGSA,A,3,04,07,09,,,,,,,,,,2.43,1.36,2.02,1*0A
(1604664749.37337) $GNGSA,A,3,75,65,66,76,74,,,,,,,,2.43,1.36,2.02,2*00
(1604664749.3752208) $GNGSA,A,3,,,,,,,,,,,,,2.43,1.36,2.02,3*02
(1604664749.3770847) $GNGSA,A,3,,,,,,,,,,,,,2.43,1.36,2.02,4*05
(1604664749.3795702) $GPGSV,1,1,03,04,31,068,21,07,59,169,28,09,70,050,33,1*58
(1604664749.3820817) $GPGSV,1,1,03,04,31,068,27,07,59,169,22,09,70,050,25,6*54
(1604664749.384915) $GLGSV,3,1,11,65,42,078,29,66,55,319,29,67,09,289,,72,04,095,,1*7D
(1604664749.387855) $GLGSV,3,2,11,74,16,026,31,75,50,085,33,76,32,152,32,81,29,258,,1*7B
(1604664749.3901713) $GLGSV,3,3,11,82,27,316,18,83,02,355,,88,05,213,,1*45
(1604664749.3929808) $GLGSV,3,1,11,65,42,078,16,66,55,319,25,67,09,289,,72,04,095,,3*7F
(1604664749.3958452) $GLGSV,3,2,11,74,16,026,,75,50,085,24,76,32,152,21,81,29,258,,3*7F
(1604664749.3981748) $GLGSV,3,3,11,82,27,316,26,83,02,355,,88,05,213,,3*4A
(1604664749.398996) $GAGSV,1,1,00,*44
(1604664749.3998065) $GAGSV,1,1,00,*44
(1604664749.400622) $GBGSV,1,1,00,*47
(1604664749.4014678) $GBGSV,1,1,00,*47
(1604664749.40368) $GNGLL,4626.03875,N,01118.79262,E,121510.00,A,A*7F
(1604664750.3640194) $GNRMC,121511.00,A,4626.03876,N,01118.79261,E,0.019,,091120,,,A,V*1E
(1604664750.3672118) $GNVTG,,T,,M,0.019,N,0.036,K,A*30
(1604664750.370446) $GNGGA,121511.00,4626.03876,N,01118.79261,E,1,08,1.36,231.4,M,46.0,M,,*41
(1604664750.3725212) $GNGSA,A,3,04,07,09,,,,,,,,,,2.43,1.36,2.02,1*0A
(1604664750.3748004) $GNGSA,A,3,75,65,66,76,74,,,,,,,,2.43,1.36,2.02,2*00
(1604664750.376651) $GNGSA,A,3,,,,,,,,,,,,,2.43,1.36,2.02,3*02
(1604664750.378553) $GNGSA,A,3,,,,,,,,,,,,,2.43,1.36,2.02,4*05
(1604664750.3810287) $GPGSV,1,1,03,04,31,068,21,07,59,169,28,09,70,050,33,1*58
(1604664750.3835208) $GPGSV,1,1,03,04,31,068,27,07,59,169,22,09,70,050,25,6*54
(1604664750.3864071) $GLGSV,3,1,11,65,42,078,29,66,55,319,29,67,09,289,,72,04,095,,1*7D
(1604664750.3893542) $GLGSV,3,2,11,74,16,026,30,75,50,085,32,76,32,152,32,81,29,258,,1*7B
(1604664750.3916478) $GLGSV,3,3,11,82,27,316,16,83,02,355,,88,05,213,,1*4B
(1604664750.3945024) $GLGSV,3,1,11,65,42,078,17,66,55,319,26,67,09,289,,72,04,095,,3*7D
(1604664750.3973904) $GLGSV,3,2,11,74,16,026,,75,50,085,23,76,32,152,21,81,29,258,,3*78
(1604664750.3997123) $GLGSV,3,3,11,82,27,316,26,83,02,355,,88,05,213,,3*4A
(1604664750.4005325) $GAGSV,1,1,00,*44
(1604664750.4013774) $GAGSV,1,1,00,*44
(1604664750.40223) $GBGSV,1,1,00,*47
(1604664750.403068) $GBGSV,1,1,00,*47
(1604664750.4052923) $GNGLL,4626.03876,N,01118.79261,E,121511.00,A,A*7E
