(1604664758.3665836) $GNVTG,,T,,M,0.141,N,0.262,K,A*3F
(1604664758.369832) $GNGGA,121519.00,4626.03884,N,01118.79261,E,1,08,1.36,231.8,M,46.0,M,,*48
(1604664758.371956) $GNGSA,A,3,04,07,09,,,,,,,,,,2.43,1.36,2.02,1*0A
(1604664758.374242) $GNGSA,A,3,75,65,66,76,74,,,,,,,,2.43,1.36,2.02,2*00
(1604664758.376149) $GNGSA,A,3,,,,,,,,,,,,,2.43,1.36,2.02,3*02
(1604664758.3780694) $GNGSA,A,3,,,,,,,,,,,,,2.43,1.36,2.02,4*05
(1604664758.3805645) $GPGSV,1,1,03,04,31,068,22,07,59,169,29,09,70,050,33,1*5A
(1604664758.3831065) $GPGSV,1,1,03,04,31,068,27,07,59,169,21,09,70,050,25,6*57
(1604664758.3860214) $GLGSV,3,1,11,65,42,079,29,66,55,320,28,67,09,289,,72,04,095,,1*77
(1604664758.388993) $GLGSV,3,2,11,74,16,026,29,75,50,085,32,76,32,152,32,81,29,258,,1*73
(1604664758.3913522) $GLGSV,3,3,11,82,27,316,13,83,02,355,,88,05,213,,1*4E
(1604664758.3942394) $GLGSV,3,1,11,65,42,079,16,66,55,320,26,67,09,289,,72,04,095,,3*77
(1604664758.3970888) $GLGSV,3,2,11,74,16,026,,75,50,085,23,76,32,152,18,81,29,258,,3*72
(1604664758.3994305) $GLGSV,3,3,11,82,27,316,27,83,02,355,,88,05,213,,3*4B
(1604664758.4002597) $GAGSV,1,1,00,*44
(1604664758.4011302) $GAGSV,1,1,00,*44
(1604664758.4019644) $GBGSV,1,1,00,*47
(1604664758.4028215) $GBGSV,1,1,00,*47
(1604664758.4050286) $GNGLL,4626.03884,N,01118.79261,E,121519.00,A,A*7B
(1604664759.3652484) $GNRMC,121520.00,A,4626.03883,N,01118.79258,E,0.139,,091120,,,A,V*1F
(1604664759.3668346) $GNVTG,,T,,M,0.139,N,0.257,K,A*36
(1604664759.3700223) $GNGGA,121520.00,4626.03883,N,01118.79258,E,1,08,1.36,231.8,M,46.0,M,,*4F
(1604664759.372164) $GNGSA,A,3,04,07,09,,,,,,,,,,2.43,1.36,2.02,1*0A
(1604664759.374457) $GNGSA,A,3,75,65,66,76,74,,,,,,,,2.43,1.36,2.02,2*00
(1604664759.3763382) $GNGSA,A,3,,,,,,,,,,,,,2.43,1.36,2.02,3*02
(1604664759.3782525) $GNGSA,A,3,,,,,,,,,,,,,2.43,1.36,2.02,4*05
(1604664759.3807461) $GPGSV,1,1,03,04,31,068,22,07,59,169,29,09,70,050,32,1*5B
(1604664759.3832977) $GPGSV,1,1,03,04,31,068,27,07,59,169,21,09,70,050,25,6*57
(1604664759.3861957) $GLGSV,3,1,11,65,42,079,28,66,55,320,28,67,09,289,,72,04,095,,1*76
(1604664759.3891807) $GLGSV,3,2,11,74,16,026,30,75,50,085,32,76,32,152,32,81,29,258,,1*7B
(1604664759.3915145) $GLGSV,3,3,11,82,27,316,14,83,02,355,,88,05,213,,1*49
(1604664759.3944225) $GLGSV,3,1,11,65,42,079,16,66,55,320,27,67,09,289,,72,04,095,,3*76
(1604664759.3973112) $GLGSV,3,2,11,74,16,026,,75,50,085,24,76,32,152,18,81,29,258,,3*75
(1604664759.3996375) $GLGSV,3,3,11,82,27,316,27,83,02,355,,88,05,213,,3*4B
(1604664759.4004598) $GAGSV,1,1,00,*44
(1604664759.4013503) $GAGSV,1,1,00,*44
(1604664759.4021897) $GBGSV,1,1,00,*47
(1604664759.4030313) $GBGSV,1,1,00,*47
(1604664759.4052749) $GNGLL,4626.03883,N,01118.79258,E,121520.00,A,A*7C
(1604664760.3655188) $GNRMC,121521.00,A,4626.03883,N,01118.79260,E,0.020,,091120,,,A,V*1C
(1604664760.3675258) $GNVTG,,T,,M,0.020,N,0.037,K,A*3B
(1604664760.3707488) $GNGGA,121521.00,4626.03883,N,01118.79260,E,1,08,1.36,231.8,M,46.0,M,,*45
(1604664760.372874) $GNGSA,A,3,04,07,09,,,,,,,,,,2.43,1.36,2.02,1*0A
(1604664760.375203) $GNGSA,A,3,75,65,66,76,74,,,,,,,,2.43,1.36,2.02,2*00
(1604664760.3770845) $GNGSA,A,3,,,,,,,,,,,,,2.43,1.36,2.02,3*02
(1604664760.3790486) $GNGSA,A,3,,,,,,,,,,,,,2.43,1.36,2.02,4*05
(1604664760.381557) $GPGSV,1,1,03,04,31,068,22,07,59,169,29,09,70,050,33,1*5A
(1604664760.3840864) $GPGSV,1,1,03,04,31,068,27,07,59,169,21,09,70,050,25,6*57
(1604664760.3870242) $GLGSV,3,1,11,65,42,079,28,66,55,320,28,67,09,289,,72,04,095,,1*76
(1604664760.3899765) $GLGSV,3,2,11,74,16,026,30,75,50,085,32,76,32,152,32,81,29,258,,1*7B
(1604664760.392319) $GLGSV,3,3,11,82,27,316,14,83,02,355,,88,05,213,,1*49
(1604664760.395229) $GLGSV,3,1,11,65,42,079,16,66,55,320,27,67,09,289,,72,04,095,,3*76
(1604664760.3981175) $GLGSV,3,2,11,74,16,026,,75,50,085,24,76,32,152,18,81,29,258,,3*75
(1604664760.4004433) $GLGSV,3,3,11,82,27,316,27,83,02,355,,88,05,213,,3*4B
(1604664760.4012997) $GAGSV,1,1,00,*44
(1604664760.4021442) $GAGSV,1,1,00,*44
(1604664760.4029605) $GBGSV,1,1,00,*47
(1604664760.4037905) $GBGSV,1,1,00,*47
(1604664760.406078) $GNGLL,4626.03883,N,01118.79260,E,121521.00,A,A*76
(1604664761.365791) $GNRMC,121522.00,A,4626.03884,N,01118.79260,E,0.105,,091120,,,A,V*1E
(1604664761.36738) $GNVTG,,T,,M,0.105,N,0.194,K,A*35
(1604664761.3705752) $GNGGA,121522.00,4626.03884,N,01118.79260,E,1,08,1.36,231.9,M,46.0,M,,*40
(1604664761.3726764) $GNGSA,A,3,04,07,09,,,,,,,,,,2.43,1.36,2.02,1*0A
(1604664761.375004) $GNGSA,A,3,75,65,66,76,74,,,,,,,,2.43,1.36,2.02,2*00
(1604664761.3768663) $GNGSA,A,3,,,,,,,,,,,,,2.43,1.36,2.02,3*02
(1604664761.3787742) $GNGSA,A,3,,,,,,,,,,,,,2.43,1.36,2.02,4*05
(1604664761.3812938) $GPGSV,1,1,03,04,31,068,23,07,59,169,29,09,70,050,33,1*5B
(1604664761.3838232) $GPGSV,1,1,03,04,31,068,27,07,59,169,21,09,70,050,25,6*57
(1604664761.3867276) $GLGSV,3,1,11,65,42,079,28,66,55,320,28,67,09,289,,72,04,095,,1*76
(1604664761.3896992) $GLGSV,3,2,11,74,16,026,30,75,50,085,32,76,32,152,32,81,29,258,,1*7B
(1604664761.3920035) $GLGSV,3,3,11,82,27,316,12,83,02,355,,88,05,213,,1*4F
(1604664761.3949144) $GLGSV,3,1,11,65,42,079,16,66,55,320,26,67,09,289,,72,04,095,,3*77
(1604664761.397831) $GLGSV,3,2,11,74,16,026,,75,50,085,25,76,32,152,19,81,29,258,,3*75
(1604664761.4001653) $GLGSV,3,3,11,82,27,316,27,83,02,355,,88,05,213,,3*4B
(1604664761.4009972) $GAGSV,1,1,00,*44
(1604664761.4018629) $GAGSV,1,1,00,*44
(1604664761.4027064) $GBGSV,1,1,00,*47
(1604664761.403543) $GBGSV,1,1,00,*47
(1604664761.4057758) $GNGLL,4626.03884,N,01118.79260,E,121522.00,A,A*72
(1604664762.3648357) $GNRMC,121523.00,A,4626.03884,N,01118.79259,E,0.182,,091120,,,A,V*1A
(1604664762.3680148) $GNVTG,,T,,M,0.182,N,0.337,K,A*31
(1604664762.3739433) $GNGGA,121523.00,4626.03884,N,01118.79259,E,1,08,1.36,231.9,M,46.0,M,,*4B
(1604664762.3760924) $GNGSA,A,3,04,07,09,,,,,,,,,,2.43,1.36,2.02,1*0A
(1604664762.3784208) $GNGSA,A,3,75,65,66,76,74,,,,,,,,2.43,1.36,2.02,2*00
(1604664762.3803074) $GNGSA,A,3,,,,,,,,,,,,,2.43,1.36,2.02,3*02
(1604664762.3822691) $GNGSA,A,3,,,,,,,,,,,,,2.43,1.36,2.02,4*05
(1604664762.384747) $GPGSV,1,1,03,04,31,068,23,07,59,169,29,09,70,050,32,1*5A
(1604664762.3872578) $GPGSV,1,1,03,04,31,068,27,07,59,169,21,09,70,050,25,6*57
(1604664762.390184) $GLGSV,3,1,11,65,42,079,28,66,55,320,28,67,09,289,,72,04,095,,1*76
(1604664762.3931804) $GLGSV,3,2,11,74,16,026,30,75,50,085,32,76,32,152,32,81,29,258,,1*7B
(1604664762.3955135) $GLGSV,3,3,11,82,27,316,10,83,02,355,,88,05,213,,1*4D
(1604664762.3984396) $GLGSV,3,1,11,65,42,079,16,66,55,320,26,67,09,289,,72,04,095,,3*77
(1604664762.4013445) $GLGSV,3,2,11,74,16,026,,75,50,085,25,76,32,152,20,81,29,258,,3*7F
(1604664762.4036639) $GLGSV,3,3,11,82,27,316,27,83,02,355,,88,05,213,,3*4B
(1604664762.4044888) $GAGSV,1,1,00,*44
(1604664762.4053674) $GAGSV,1,1,00,*44
(1604664762.4061904) $GBGSV,1,1,00,*47
(1604664762.4070275) $GBGSV,1,1,00,*47
(1604664762.4092984) $GNGLL,4626.03884,N,01118.79259,E,121523.00,A,A*79
(1604664763.3642) $GNRMC,121524.00,A,4626.03879,N,01118.79254,E,0.339,,091120,,,A,V*10
(1604664763.3673818) $GNVTG,,T,,M,0.339,N,0.627,K,A*37
(1604664763.3721313) $GNGGA,121524.00,4626.03879,N,01118.79254,E,1,08,1.36,231.9,M,46.0,M,,*43
(1604664763.3743315) $GNGSA,A,3,04,07,09,,,,,,,,,,2.43,1.36,2.02,1*0A
(1604664763.376637) $GNGSA,A,3,75,65,66,76,74,,,,,,,,2.43,1.36,2.02,2*00
(1604664763.3785408) $GNGSA,A,3,,,,,,,,,,,,,2.43,1.36,2.02,3*02
(1604664763.3804173) $GNGSA,A,3,,,,,,,,,,,,,2.43,1.36,2.02,4*05
(1604664763.382917) $GPGSV,1,1,03,04,31,068,23,07,59,169,29,09,70,050,33,1*5B
(1604664763.3854988) $GPGSV,1,1,03,04,31,068,27,07,59,169,21,09,70,050,25,6*57
(1604664763.3884022) $GLGSV,3,1,11,65,42,079,29,66,55,320,28,67,09,289,,72,04,095,,1*77
(1604664763.3913736) $GLGSV,3,2,11,74,16,026,30,75,50,085,32,76,32,152,31,81,29,258,,1*78
(1604664763.3937044) $GLGSV,3,3,11,82,27,316,09,83,02,355,,88,05,213,,1*45
(1604664763.3965683) $GLGSV,3,1,11,65,42,079,17,66,55,320,26,67,09,289,,72,04,095,,3*76
(1604664763.3994634) $GLGSV,3,2,11,74,16,026,,75,50,085,25,76,32,152,20,81,29,258,,3*7F
(1604664763.401826) $GLGSV,3,3,11,82,27,316,26,83,02,355,,88,05,213,,3*4A
(1604664763.4026508) $GAGSV,1,1,00,*44
(1604664763.4034936) $GAGSV,1,1,00,*44
(1604664763.404351) $GBGSV,1,1,00,*47
(1604664763.4051988) $GBGSV,1,1,00,*47
(1604664763.4074562) $GNGLL,4626.03879,N,01118.79254,E,121524.00,A,A*71
(1604664764.365575) $GNRMC,121525.00,A,4626.03763,N,01118.79207,E,6.087,196.49,091120,,,A,V*0E
(1604664764.3695962) $GNVTG,196.49,T,,M,6.087,N,11.272,K,A*1E
(1604664764.3728106) $GNGGA,121525.00,4626.03763,N,01118.79207,E,1,08,1.36,232.0,M,46.0,M,,*4A
(1604664764.3749526) $GNGSA,A,3,04,07,09,,,,,,,,,,2.43,1.36,2.02,1*0A
(1604664764.3772578) $GNGSA,A,3,75,65,66,76,74,,,,,,,,2.43,1.36,2.02,2*00
(1604664764.379113) $GNGSA,A,3,,,,,,,,,,,,,2.43,1.36,2.02,3*02
(1604664764.3809726) $GNGSA,A,3,,,,,,,,,,,,,2.43,1.36,2.02,4*05
(1604664764.3835077) $GPGSV,1,1,03,04,31,068,22,07,59,169,29,09,70,050,33,1*5A
(1604664764.3860676) $GPGSV,1,1,03,04,31,068,27,07,59,169,20,09,70,050,24,6*57
(1604664764.3889647) $GLGSV,3,1,11,65,42,079,29,66,55,320,28,67,09,289,,72,04,095,,1*77
(1604664764.3919623) $GLGSV,3,2,11,74,16,026,30,75,50,085,32,76,32,152,32,81,29,258,,1*7B
(1604664764.3943336) $GLGSV,3,3,11,82,27,316,14,83,02,355,,88,05,213,,1*49
(1604664764.397208) $GLGSV,3,1,11,65,42,079,17,66,55,320,26,67,09,289,,72,04,095,,3*76
(1604664764.400134) $GLGSV,3,2,11,74,16,026,,75,50,085,25,76,32,152,19,81,29,258,,3*75
(1604664764.402518) $GLGSV,3,3,11,82,27,316,26,83,02,355,,88,05,213,,3*4A
(1604664764.4033604) $GAGSV,1,1,00,*44
(1604664764.4042053) $GAGSV,1,1,00,*44
(1604664764.405027) $GBGSV,1,1,00,*47
(1604664764.4058852) $GBGSV,1,1,00,*47
(1604664764.4081035) $GNGLL,4626.03763,N,01118.79207,E,121525.00,A,A*72
(1604664765.3657115) $GNRMC,121526.00,A,4626.03498,N,01118.79074,E,11.788,199.35,091120,,,A,V*36
(1604664765.369077) $GNVTG,199.35,T,,M,11.788,N,21.831,K,A*2A
(1604664765.3722703) $GNGGA,121526.00,4626.03498,N,01118.79074,E,1,08,1.36,232.0,M,46.0,M,,*48
(1604664765.374436) $GNGSA,A,3,04,07,09,,,,,,,,,,2.43,1.36,2.02,1*0A
(1604664765.3767107) $GNGSA,A,3,75,65,66,76,74,,,,,,,,2.43,1.36,2.02,2*00
(1604664765.3785973) $GNGSA,A,3,,,,,,,,,,,,,2.43,1.36,2.02,3*02
(1604664765.3804562) $GNGSA,A,3,,,,,,,,,,,,,2.43,1.36,2.02,4*05
(1604664765.3829985) $GPGSV,1,1,03,04,31,068,24,07,59,169,29,09,70,050,33,1*5C
(1604664765.385517) $GPGSV,1,1,03,04,31,068,27,07,59,169,21,09,70,050,25,6*57
(1604664765.388386) $GLGSV,3,1,11,65,42,079,30,66,55,320,28,67,09,289,,72,04,095,,1*7F
(1604664765.3913732) $GLGSV,3,2,11,74,16,026,29,75,50,085,31,76,32,152,33,81,29,258,,1*71
(1604664765.3937168) $GLGSV,3,3,11,82,27,316,13,83,02,355,,88,05,213,,1*4E
(1604664765.396568) $GLGSV,3,1,11,65,42,079,17,66,55,320,26,67,09,289,,72,04,095,,3*76
(1604664765.399432) $GLGSV,3,2,11,74,16,026,,75,50,085,25,76,32,152,19,81,29,258,,3*75
(1604664765.4017982) $GLGSV,3,3,11,82,27,316,26,83,02,355,,88,05,213,,3*4A
(1604664765.4026434) $GAGSV,1,1,00,*44
(1604664765.4034774) $GAGSV,1,1,00,*44
(1604664765.4043097) $GBGSV,1,1,00,*47
(1604664765.4051635) $GBGSV,1,1,00,*47
(1604664765.4073718) $GNGLL,4626.03498,N,01118.79074,E,121526.00,A,A*70
(1604664766.364278) $GNRMC,121527.00,A,4626.03087,N,01118.78858,E,17.368,199.62,091120,,,A,V*34
(1604664766.367376) $GNVTG,199.62,T,,M,17.368,N,32.166,K,A*2D
(1604664766.3705704) $GNGGA,121527.00,4626.03087,N,01118.78858,E,1,08,1.36,232.1,M,46.0,M,,*45
(1604664766.3726752) $GNGSA,A,3,04,07,09,,,,,,,,,,2.43,1.36,2.02,1*0A
(1604664766.3749826) $GNGSA,A,3,75,65,66,76,74,,,,,,,,2.43,1.36,2.02,2*00
(1604664766.3768566) $GNGSA,A,3,,,,,,,,,,,,,2.43,1.36,2.02,3*02
(1604664766.3787777) $GNGSA,A,3,,,,,,,,,,,,,2.43,1.36,2.02,4*05
(1604664766.3813097) $GPGSV,1,1,03,04,31,068,25,07,59,169,29,09,70,050,33,1*5D
(1604664766.3838205) $GPGSV,1,1,03,04,31,068,26,07,59,169,20,09,70,050,25,6*57
(1604664766.3867548) $GLGSV,3,1,11,65,42,079,30,66,55,320,27,67,09,289,,72,04,095,,1*70
(1604664766.3897386) $GLGSV,3,2,11,74,16,026,29,75,50,085,31,76,32,152,32,81,29,258,,1*70
(1604664766.3920043) $GLGSV,3,3,11,82,27,316,,83,02,355,,88,05,213,,1*4C
(1604664766.3948839) $GLGSV,3,1,11,65,42,079,16,66,55,320,27,67,09,289,,72,04,095,,3*76
(1604664766.397743) $GLGSV,3,2,11,74,16,026,,75,50,085,26,76,32,152,19,81,29,258,,3*76
(1604664766.4000814) $GLGSV,3,3,11,82,27,316,26,83,02,355,,88,05,213,,3*4A
(1604664766.4009087) $GAGSV,1,1,00,*44
(1604664766.401751) $GAGSV,1,1,00,*44
(1604664766.4026077) $GBGSV,1,1,00,*47
(1604664766.4034674) $GBGSV,1,1,00,*47
(1604664766.405703) $GNGLL,4626.03087,N,01118.78858,E,121527.00,A,A*7C
(1604664767.3649807) $GNRMC,121528.00,A,4626.02532,N,01118.78597,E,22.484,197.31,091120,,,A,V*34
(1604664767.3682716) $GNVTG,197.31,T,,M,22.484,N,41.641,K,A*20
(1604664767.3714826) $GNGGA,121528.00,4626.02532,N,01118.78597,E,1,08,1.36,232.1,M,46.0,M,,*4E
(1604664767.3736298) $GNGSA,A,3,04,07,09,,,,,,,,,,2.43,1.36,2.02,1*0A
(1604664767.375904) $GNGSA,A,3,75,65,66,76,74,,,,,,,,2.43,1.36,2.02,2*00
(1604664767.3777757) $GNGSA,A,3,,,,,,,,,,,,,2.43,1.36,2.02,3*02
(1604664767.3796296) $GNGSA,A,3,,,,,,,,,,,,,2.43,1.36,2.02,4*05
(1604664767.3821235) $GPGSV,1,1,03,04,31,068,25,07,59,169,29,09,70,050,33,1*5D
(1604664767.3846126) $GPGSV,1,1,03,04,31,068,26,07,59,169,20,09,70,050,25,6*57
(1604664767.3875165) $GLGSV,3,1,11,65,42,079,29,66,55,320,28,67,09,289,,72,04,095,,1*77
(1604664767.3905196) $GLGSV,3,2,11,74,16,026,29,75,50,084,31,76,32,152,32,81,29,258,,1*71
(1604664767.3927724) $GLGSV,3,3,11,82,27,316,,83,02,355,,88,05,213,,1*4C
(1604664767.3956614) $GLGSV,3,1,11,65,42,079,17,66,55,320,26,67,09,289,,72,04,095,,3*76
(1604664767.3985682) $GLGSV,3,2,11,74,16,026,,75,50,084,26,76,32,152,18,81,29,258,,3*76
(1604664767.4009547) $GLGSV,3,3,11,82,27,316,25,83,02,355,,88,05,213,,3*49
(1604664767.4018323) $GAGSV,1,1,00,*44
(1604664767.402667) $GAGSV,1,1,00,*44
(1604664767.4035237) $GBGSV,1,1,00,*47
(1604664767.4043736) $GBGSV,1,1,00,*47
(1604664767.4066305) $GNGLL,4626.02532,N,01118.78597,E,121528.00,A,A*77
(1604664768.3642523) $GNRMC,121529.00,A,4626.01839,N,01118.78298,E,27.545,196.50,091120,,,A,V*37
(1604664768.3681142) $GNVTG,196.50,T,,M,27.545,N,51.014,K,A*28
(1604664768.371511) $GNGGA,121529.00,4626.01839,N,01118.78298,E,1,08,1.36,232.3,M,46.0,M,,*40
(1604664768.3736422) $GNGSA,A,3,04,07,09,,,,,,,,,,2.43,1.36,2.02,1*0A
(1604664768.3759186) $GNGSA,A,3,75,65,66,76,74,,,,,,,,2.43,1.36,2.02,2*00
(1604664768.3778186) $GNGSA,A,3,,,,,,,,,,,,,2.43,1.36,2.02,3*02
(1604664768.379689) $GNGSA,A,3,,,,,,,,,,,,,2.43,1.36,2.02,4*05
(1604664768.3822346) $GPGSV,1,1,03,04,31,068,24,07,59,169,29,09,70,050,33,1*5C
(1604664768.3847647) $GPGSV,1,1,03,04,31,068,26,07,59,169,21,09,70,050,25,6*56
(1604664768.3876677) $GLGSV,3,1,11,65,42,079,29,66,55,320,28,67,09,289,,72,04,095,,1*77
(1604664768.3906584) $GLGSV,3,2,11,74,16,026,29,75,50,084,31,76,32,152,33,81,29,258,,1*70
(1604664768.3929539) $GLGSV,3,3,11,82,27,316,,83,02,355,,88,05,213,,1*4C
(1604664768.3958364) $GLGSV,3,1,11,65,42,079,18,66,55,320,26,67,09,289,,72,04,095,,3*79
(1604664768.3987377) $GLGSV,3,2,11,74,16,026,,75,50,084,26,76,32,152,18,81,29,258,,3*76
(1604664768.4010348) $GLGSV,3,3,11,82,27,316,24,83,02,355,,88,05,213,,3*48
(1604664768.4019132) $GAGSV,1,1,00,*44
(1604664768.402744) $GAGSV,1,1,00,*44
(1604664768.4035692) $GBGSV,1,1,00,*47
(1604664768.404393) $GBGSV,1,1,00,*47
(1604664768.4066556) $GNGLL,4626.01839,N,01118.78298,E,121529.00,A,A*7B
(1604664769.36529) $GNRMC,121530.00,A,4626.01112,N,01118.78017,E,26.634,192.93,091120,,,A,V*35
(1604664769.3691735) $GNVTG,192.93,T,,M,26.634,N,49.326,K,A*2C
(1604664769.3735704) $GNGGA,121530.00,4626.01112,N,01118.78017,E,1,08,1.36,232.3,M,46.0,M,,*4D
(1604664769.3757477) $GNGSA,A,3,04,07,09,,,,,,,,,,2.43,1.36,2.02,1*0A
(1604664769.3780363) $GNGSA,A,3,75,65,66,76,74,,,,,,,,2.43,1.36,2.02,2*00
(1604664769.379914) $GNGSA,A,3,,,,,,,,,,,,,2.43,1.36,2.02,3*02
(1604664769.3818455) $GNGSA,A,3,,,,,,,,,,,,,2.43,1.36,2.02,4*05
(1604664769.3843613) $GPGSV,1,1,03,04,31,068,24,07,59,169,29,09,70,050,33,1*5C
(1604664769.3869357) $GPGSV,1,1,03,04,31,068,26,07,59,169,21,09,70,050,25,6*56
(1604664769.3898587) $GLGSV,3,1,11,65,42,079,29,66,55,320,28,67,09,289,,72,04,095,,1*77
(1604664769.392841) $GLGSV,3,2,11,74,16,026,29,75,50,084,31,76,32,152,32,81,29,258,,1*71
(1604664769.3951294) $GLGSV,3,3,11,82,27,316,,83,02,355,,88,05,213,,1*4C
(1604664769.3980162) $GLGSV,3,1,11,65,42,079,18,66,55,320,26,67,09,289,,72,04,095,,3*79
(1604664769.4009037) $GLGSV,3,2,11,74,16,026,,75,50,084,25,76,32,152,19,81,29,258,,3*74
(1604664769.4032829) $GLGSV,3,3,11,82,27,316,24,83,02,355,,88,05,213,,3*48
(1604664769.4041188) $GAGSV,1,1,00,*44
(1604664769.404985) $GAGSV,1,1,00,*44
(1604664769.4058385) $GBGSV,1,1,00,*47
(1604664769.4066796) $GBGSV,1,1,00,*47
(1604664769.4089272) $GNGLL,4626.01112,N,01118.78017,E,121530.00,A,A*76
(1604664770.365958) $GNRMC,121531.00,A,4626.00468,N,01118.77787,E,22.729,193.71,091120,,,A,V*38
(1604664770.3691676) $GNVTG,193.71,T,,M,22.729,N,42.094,K,A*29
(1604664770.3723507) $GNGGA,121531.00,4626.00468,N,01118.77787,E,1,08,1.36,232.3,M,46.0,M,,*44
(1604664770.3745167) $GNGSA,A,3,04,07,09,,,,,,,,,,2.43,1.36,2.02,1*0A
(1604664770.3767965) $GNGSA,A,3,75,65,66,76,74,,,,,,,,2.43,1.36,2.02,2*00
(1604664770.378695) $GNGSA,A,3,,,,,,,,,,,,,2.43,1.36,2.02,3*02
(1604664770.3805552) $GNGSA,A,3,,,,,,,,,,,,,2.43,1.36,2.02,4*05
(1604664770.3830874) $GPGSV,1,1,03,04,31,068,24,07,59,169,29,09,70,050,32,1*5D
(1604664770.3856602) $GPGSV,1,1,03,04,31,068,26,07,59,169,21,09,70,050,25,6*56
(1604664770.3885674) $GLGSV,3,1,11,65,42,079,28,66,55,320,28,67,09,289,,72,04,095,,1*76
(1604664770.3915617) $GLGSV,3,2,11,74,16,026,29,75,50,084,31,76,32,152,32,81,29,258,,1*71
(1604664770.3938222) $GLGSV,3,3,11,82,27,316,,83,02,355,,88,05,213,,1*4C
(1604664770.396672) $GLGSV,3,1,11,65,42,079,19,66,55,320,27,67,09,289,,72,04,095,,3*79
(1604664770.3995497) $GLGSV,3,2,11,74,16,026,,75,50,084,25,76,32,152,19,81,29,258,,3*74
(1604664770.4019322) $GLGSV,3,3,11,82,27,316,25,83,02,355,,88,05,213,,3*49
(1604664770.4027615) $GAGSV,1,1,00,*44
(1604664770.4036078) $GAGSV,1,1,00,*44
(1604664770.4044547) $GBGSV,1,1,00,*47
(1604664770.4052997) $GBGSV,1,1,00,*47
(1604664770.4075212) $GNGLL,4626.00468,N,01118.77787,E,121531.00,A,A*7F
(1604664771.3658483) $GNRMC,121532.00,A,4625.99899,N,01118.77748,E,19.899,178.26,091120,,,A,V*32
(1604664771.368715) $GNVTG,178.26,T,,M,19.899,N,36.852,K,A*23
(1604664771.3718908) $GNGGA,121532.00,4625.99899,N,01118.77748,E,1,08,1.36,232.3,M,46.0,M,,*45
(1604664771.37403) $GNGSA,A,3,04,07,09,,,,,,,,,,2.43,1.36,2.02,1*0A
(1604664771.3763163) $GNGSA,A,3,75,65,66,76,74,,,,,,,,2.43,1.36,2.02,2*00
(1604664771.3782394) $GNGSA,A,3,,,,,,,,,,,,,2.43,1.36,2.02,3*02
(1604664771.3801181) $GNGSA,A,3,,,,,,,,,,,,,2.43,1.36,2.02,4*05
(1604664771.382644) $GPGSV,1,1,03,04,31,068,25,07,59,169,29,09,70,050,31,1*5F
(1604664771.385137) $GPGSV,1,1,03,04,31,068,25,07,59,169,21,09,70,050,25,6*55
(1604664771.3880162) $GLGSV,3,1,11,65,42,079,28,66,55,320,28,67,09,289,,72,04,095,,1*76
(1604664771.3910072) $GLGSV,3,2,11,74,16,026,28,75,50,084,32,76,32,152,27,81,29,258,,1*77
(1604664771.393397) $GLGSV,3,3,11,82,27,316,23,83,02,355,,88,05,213,,1*4D
(1604664771.3962865) $GLGSV,3,1,11,65,42,079,18,66,55,320,28,67,09,289,,72,04,095,,3*77
(1604664771.399194) $GLGSV,3,2,11,74,16,026,,75,50,084,25,76,32,152,19,81,29,258,,3*74
(1604664771.40154) $GLGSV,3,3,11,82,27,316,26,83,02,355,,88,05,213,,3*4A
(1604664771.4023774) $GAGSV,1,1,00,*44
(1604664771.4031992) $GAGSV,1,1,00,*44
(1604664771.4040504) $GBGSV,1,1,00,*47
(1604664771.4048707) $GBGSV,1,1,00,*47
(1604664771.4070792) $GNGLL,4625.99899,N,01118.77748,E,121532.00,A,A*7E
(1604664772.3655858) $GNRMC,121533.00,A,4625.99450,N,01118.78206,E,21.204,134.86,091120,,,A,V*3D
(1604664772.368534) $GNVTG,134.86,T,,M,21.204,N,39.271,K,A*20
(1604664772.3717158) $GNGGA,121533.00,4625.99450,N,01118.78206,E,1,08,1.36,233.6,M,46.0,M,,*49
(1604664772.3738847) $GNGSA,A,3,04,07,09,,,,,,,,,,2.43,1.36,2.02,1*0A
(1604664772.3761768) $GNGSA,A,3,75,65,66,76,74,,,,,,,,2.43,1.36,2.02,2*00
(1604664772.3780785) $GNGSA,A,3,,,,,,,,,,,,,2.43,1.36,2.02,3*02
(1604664772.3799248) $GNGSA,A,3,,,,,,,,,,,,,2.43,1.36,2.02,4*05
(1604664772.3824165) $GPGSV,1,1,03,04,31,068,25,07,59,169,26,09,70,050,30,1*51
(1604664772.3849065) $GPGSV,1,1,03,04,31,068,22,07,59,169,21,09,70,050,26,6*51
(1604664772.3877983) $GLGSV,3,1,11,65,42,079,27,66,55,320,29,67,09,289,,72,04,095,,1*78
(1604664772.3908145) $GLGSV,3,2,11,74,16,026,25,75,50,084,31,76,32,152,26,81,29,258,,1*78
(1604664772.3931582) $GLGSV,3,3,11,82,27,316,27,83,02,355,,88,05,213,,1*49
(1604664772.396095) $GLGSV,3,1,11,65,42,079,17,66,55,320,26,67,09,289,,72,04,095,,3*76
(1604664772.3990145) $GLGSV,3,2,11,74,16,026,,75,50,084,25,76,32,152,21,81,29,258,,3*7F
(1604664772.4013708) $GLGSV,3,3,11,82,27,316,31,83,02,355,,88,05,213,,3*4C
(1604664772.40222) $GAGSV,1,1,00,*44
(1604664772.4030516) $GAGSV,1,1,00,*44
(1604664772.403901) $GBGSV,1,1,00,*47
(1604664772.4047356) $GBGSV,1,1,00,*47
(1604664772.4070382) $GNGLL,4625.99450,N,01118.78206,E,121533.00,A,A*76
(1604664773.3660862) $GNRMC,121534.00,A,4625.99342,N,01118.79008,E,22.055,90.65,091120,,,A,V*04
(1604664773.3698988) $GNVTG,90.65,T,,M,22.055,N,40.845,K,A*14
(1604664773.3760097) $GNGGA,121534.00,4625.99342,N,01118.79008,E,1,08,1.36,234.5,M,46.0,M,,*43
(1604664773.3781872) $GNGSA,A,3,04,07,09,,,,,,,,,,2.43,1.36,2.02,1*0A
(1604664773.380467) $GNGSA,A,3,75,65,66,76,74,,,,,,,,2.43,1.36,2.02,2*00
(1604664773.3823614) $GNGSA,A,3,,,,,,,,,,,,,2.43,1.36,2.02,3*02
(1604664773.3842607) $GNGSA,A,3,,,,,,,,,,,,,2.43,1.36,2.02,4*05
(1604664773.3868382) $GPGSV,1,1,03,04,31,068,23,07,59,169,21,09,70,050,28,1*59
(1604664773.389436) $GPGSV,1,1,03,04,31,068,21,07,59,169,22,09,70,050,27,6*50
(1604664773.3923025) $GLGSV,3,1,11,65,42,079,27,66,55,320,33,67,09,289,,72,04,095,,1*73
(1604664773.3952997) $GLGSV,3,2,11,74,16,026,25,75,50,084,31,76,32,152,23,81,29,258,,1*7D
(1604664773.3976514) $GLGSV,3,3,11,82,27,316,27,83,02,355,,88,05,213,,1*49
(1604664773.4005454) $GLGSV,3,1,11,65,42,079,17,66,55,320,25,67,09,289,,72,04,095,,3*75
(1604664773.4034872) $GLGSV,3,2,11,74,16,026,,75,50,084,25,76,32,152,23,81,29,258,,3*7D
(1604664773.4058993) $GLGSV,3,3,11,82,27,316,29,83,02,355,,88,05,213,,3*45
(1604664773.4067297) $GAGSV,1,1,00,*44
(1604664773.4075763) $GAGSV,1,1,00,*44
(1604664773.408397) $GBGSV,1,1,00,*47
(1604664773.4092507) $GBGSV,1,1,00,*47
(1604664773.4114652) $GNGLL,4625.99342,N,01118.79008,E,121534.00,A,A*78
(1604664774.3641992) $GNRMC,121535.00,A,4625.99720,N,01118.79848,E,26.125,50.06,091120,,,A,V*02
(1604664774.3661437) $GNVTG,50.06,T,,M,26.125,N,48.384,K,A*11
(1604664774.3693361) $GNGGA,121535.00,4625.99720,N,01118.79848,E,1,08,1.36,235.0,M,46.0,M,,*4A
(1604664774.3714488) $GNGSA,A,3,04,07,09,,,,,,,,,,2.43,1.36,2.02,1*0A
(1604664774.3737957) $GNGSA,A,3,75,65,66,76,74,,,,,,,,2.43,1.36,2.02,2*00
(1604664774.3756695) $GNGSA,A,3,,,,,,,,,,,,,2.43,1.36,2.02,3*02
(1604664774.3775496) $GNGSA,A,3,,,,,,,,,,,,,2.43,1.36,2.02,4*05
(1604664774.380019) $GPGSV,1,1,03,04,31,068,23,07,59,169,22,09,70,050,30,1*53
(1604664774.3825529) $GPGSV,1,1,03,04,31,068,19,07,59,169,24,09,70,050,26,6*5C
(1604664774.385494) $GLGSV,3,1,11,65,42,079,26,66,55,320,27,67,09,289,,72,04,095,,1*77
(1604664774.3884833) $GLGSV,3,2,11,74,16,026,25,75,50,084,30,76,32,152,22,81,29,258,,1*7D
(1604664774.3908238) $GLGSV,3,3,11,82,27,315,27,83,02,355,,88,05,213,,1*4A
(1604664774.3936841) $GLGSV,3,1,11,65,42,079,16,66,55,320,25,67,09,289,,72,04,095,,3*74
(1604664774.396522) $GLGSV,3,2,11,74,16,026,,75,50,084,26,76,32,152,25,81,29,258,,3*78
(1604664774.3988497) $GLGSV,3,3,11,82,27,315,27,83,02,355,,88,05,213,,3*48
(1604664774.3996825) $GAGSV,1,1,00,*44
(1604664774.4005136) $GAGSV,1,1,00,*44
(1604664774.401372) $GBGSV,1,1,00,*47
(1604664774.4022024) $GBGSV,1,1,00,*47
(1604664774.4044032) $GNGLL,4625.99720,N,01118.79848,E,121535.00,A,A*75
(1604664775.3651743) $GNRMC,121536.00,A,4626.00445,N,01118.80515,E,31.660,28.36,091120,,,A,V*0D
(1604664775.3672788) $GNVTG,28.36,T,,M,31.660,N,58.635,K,A*13
(1604664775.3704755) $GNGGA,121536.00,4626.00445,N,01118.80515,E,1,08,1.36,235.2,M,46.0,M,,*4B
(1604664775.3726106) $GNGSA,A,3,04,07,09,,,,,,,,,,2.44,1.36,2.02,1*0D
(1604664775.3749287) $GNGSA,A,3,75,65,66,76,74,,,,,,,,2.44,1.36,2.02,2*07
(1604664775.376778) $GNGSA,A,3,,,,,,,,,,,,,2.44,1.36,2.02,3*05
(1604664775.3786979) $GNGSA,A,3,,,,,,,,,,,,,2.44,1.36,2.02,4*02
(1604664775.3812404) $GPGSV,1,1,03,04,31,068,20,07,59,169,29,09,70,050,30,1*5B
(1604664775.3837447) $GPGSV,1,1,03,04,31,068,18,07,59,169,25,09,70,050,25,6*5F
(1604664775.3866541) $GLGSV,3,1,11,65,42,079,27,66,55,320,29,67,09,289,,72,04,095,,1*78
(1604664775.389627) $GLGSV,3,2,11,74,16,026,23,75,50,084,23,76,32,152,19,81,29,258,,1*71
(1604664775.3919554) $GLGSV,3,3,11,82,27,315,27,83,03,354,,88,05,213,,1*4A
(1604664775.3948295) $GLGSV,3,1,11,65,42,079,16,66,55,320,24,67,09,289,,72,04,095,,3*75
(1604664775.3977354) $GLGSV,3,2,11,74,16,026,,75,50,084,26,76,32,152,26,81,29,258,,3*7B
(1604664775.4001086) $GLGSV,3,3,11,82,27,315,25,83,03,354,,88,05,213,,3*4A
(1604664775.4009423) $GAGSV,1,1,00,*44
(1604664775.4018192) $GAGSV,1,1,00,*44
(1604664775.4028718) $GBGSV,1,1,00,*47
(1604664775.4037445) $GBGSV,1,1,00,*47
(1604664775.4059958) $GNGLL,4626.00445,N,01118.80515,E,121536.00,A,A*76
(1604664776.3650033) $GNRMC,121537.00,A,4626.01381,N,01118.81053,E,37.294,19.87,091120,,,A,V*05
(1604664776.366888) $GNVTG,19.87,T,,M,37.294,N,69.069,K,A*1F
(1604664776.3701315) $GNGGA,121537.00,4626.01381,N,01118.81053,E,1,08,1.36,235.6,M,46.0,M,,*46
(1604664776.3722765) $GNGSA,A,3,04,07,09,,,,,,,,,,2.44,1.36,2.02,1*0D
(1604664776.3745823) $GNGSA,A,3,75,65,66,76,74,,,,,,,,2.44,1.36,2.02,2*07
(1604664776.3764417) $GNGSA,A,3,,,,,,,,,,,,,2.44,1.36,2.02,3*05
(1604664776.3783646) $GNGSA,A,3,,,,,,,,,,,,,2.44,1.36,2.02,4*02
(1604664776.380882) $GPGSV,1,1,03,04,31,068,18,07,59,169,30,09,70,050,29,1*50
(1604664776.3834257) $GPGSV,1,1,03,04,31,068,18,07,59,169,25,09,70,050,25,6*5F
(1604664776.3863354) $GLGSV,3,1,11,65,42,079,26,66,55,320,30,67,09,289,,72,04,095,,1*71
(1604664776.389308) $GLGSV,3,2,11,74,16,026,24,75,50,084,22,76,32,152,23,81,29,258,,1*7E
(1604664776.3916225) $GLGSV,3,3,11,82,27,315,27,83,03,354,,88,05,213,,1*4A
(1604664776.394509) $GLGSV,3,1,11,65,42,079,16,66,55,320,23,67,09,289,,72,04,095,,3*72
(1604664776.3973901) $GLGSV,3,2,11,74,16,026,,75,50,084,26,76,32,152,27,81,29,258,,3*7A
(1604664776.399759) $GLGSV,3,3,11,82,27,315,21,83,03,354,,88,05,213,,3*4E
(1604664776.4005904) $GAGSV,1,1,00,*44
(1604664776.4014494) $GAGSV,1,1,00,*44
(1604664776.402273) $GBGSV,1,1,00,*47
(1604664776.4030967) $GBGSV,1,1,00,*47
(1604664776.4053166) $GNGLL,4626.01381,N,01118.81053,E,121537.00,A,A*7F
(1604664777.365292) $GNRMC,121538.00,A,4626.02443,N,01118.81473,E,40.927,14.48,091120,,,A,V*0B
(1604664777.3671093) $GNVTG,14.48,T,,M,40.927,N,75.796,K,A*18
(1604664777.3702834) $GNGGA,121538.00,4626.02443,N,01118.81473,E,1,08,1.36,236.0,M,46.0,M,,*40
(1604664777.3723927) $GNGSA,A,3,04,07,09,,,,,,,,,,2.44,1.36,2.02,1*0D
(1604664777.3747048) $GNGSA,A,3,75,65,66,76,74,,,,,,,,2.44,1.36,2.02,2*07
(1604664777.376607) $GNGSA,A,3,,,,,,,,,,,,,2.44,1.36,2.02,3*05
(1604664777.3785195) $GNGSA,A,3,,,,,,,,,,,,,2.44,1.36,2.02,4*02
(1604664777.3810368) $GPGSV,1,1,03,04,31,068,16,07,59,169,30,09,70,050,26,1*51
(1604664777.3835483) $GPGSV,1,1,03,04,31,068,18,07,59,169,23,09,70,050,25,6*59
(1604664777.3864875) $GLGSV,3,1,11,65,42,079,25,66,55,320,32,67,09,289,,72,04,095,,1*70
(1604664777.3895075) $GLGSV,3,2,11,74,16,026,24,75,50,084,19,76,32,152,22,81,29,258,,1*77
(1604664777.391836) $GLGSV,3,3,11,82,27,315,28,83,03,354,,88,05,213,,1*45
(1604664777.3947384) $GLGSV,3,1,11,65,42,079,14,66,55,320,22,67,09,289,,72,04,095,,3*71
(1604664777.3976583) $GLGSV,3,2,11,74,16,026,,75,50,084,26,76,32,152,28,81,29,258,,3*75
(1604664777.3999763) $GLGSV,3,3,11,82,27,315,14,83,03,354,,88,05,213,,3*48
(1604664777.4008272) $GAGSV,1,1,00,*44
(1604664777.4016724) $GAGSV,1,1,00,*44
(1604664777.4025054) $GBGSV,1,1,00,*47
(1604664777.403369) $GBGSV,1,1,00,*47
(1604664777.405595) $GNGLL,4626.02443,N,01118.81473,E,121538.00,A,A*7C
(1604664778.364012) $GNRMC,121539.00,A,4626.03631,N,01118.81919,E,45.336,14.72,091120,,,A,V*0B
(1604664778.366328) $GNVTG,14.72,T,,M,45.336,N,83.963,K,A*13
(1604664778.369532) $GNGGA,121539.00,4626.03631,N,01118.81919,E,1,08,1.36,236.1,M,46.0,M,,*47
(1604664778.3716705) $GNGSA,A,3,04,07,09,,,,,,,,,,2.44,1.36,2.02,1*0D
(1604664778.3740222) $GNGSA,A,3,75,65,66,76,74,,,,,,,,2.44,1.36,2.02,2*07
(1604664778.3758888) $GNGSA,A,3,,,,,,,,,,,,,2.44,1.36,2.02,3*05
(1604664778.377832) $GNGSA,A,3,,,,,,,,,,,,,2.44,1.36,2.02,4*02
(1604664778.3803198) $GPGSV,1,1,03,04,31,068,14,07,59,169,30,09,70,050,25,1*50
(1604664778.3828447) $GPGSV,1,1,03,04,31,068,20,07,59,169,23,09,70,050,25,6*52
(1604664778.385743) $GLGSV,3,1,11,65,42,079,25,66,55,320,32,67,09,289,,72,04,095,,1*70
(1604664778.388757) $GLGSV,3,2,11,74,16,026,25,75,50,084,16,76,32,152,22,81,29,258,,1*79
(1604664778.391088) $GLGSV,3,3,11,82,27,315,28,83,03,354,,88,05,212,,1*44
(1604664778.3939884) $GLGSV,3,1,11,65,42,079,13,66,55,320,22,67,09,289,,72,04,095,,3*76
(1604664778.396863) $GLGSV,3,2,11,74,16,026,,75,50,084,26,76,32,152,28,81,29,258,,3*75
(1604664778.3992293) $GLGSV,3,3,11,82,27,315,10,83,03,354,,88,05,212,,3*4D
(1604664778.4000509) $GAGSV,1,1,00,*44
(1604664778.4008756) $GAGSV,1,1,00,*44
(1604664778.4017398) $GBGSV,1,1,00,*47
(1604664778.402585) $GBGSV,1,1,00,*47
(1604664778.4047866) $GNGLL,4626.03631,N,01118.81919,E,121539.00,A,A*7A
(1604664779.3655403) $GNRMC,121540.00,A,4626.04815,N,01118.82375,E,43.968,15.67,091120,,,A,V*0B
(1604664779.3674557) $GNVTG,15.67,T,,M,43.968,N,81.429,K,A*10
(1604664779.3706899) $GNGGA,121540.00,4626.04815,N,01118.82375,E,1,08,1.36,236.9,M,46.0,M,,*4D
(1604664779.3728187) $GNGSA,A,3,04,07,09,,,,,,,,,,2.44,1.36,2.02,1*0D
(1604664779.3751376) $GNGSA,A,3,75,65,66,76,74,,,,,,,,2.44,1.36,2.02,2*07
(1604664779.3769808) $GNGSA,A,3,,,,,,,,,,,,,2.44,1.36,2.02,3*05
(1604664779.3788986) $GNGSA,A,3,,,,,,,,,,,,,2.44,1.36,2.02,4*02
(1604664779.3814359) $GPGSV,1,1,03,04,31,068,11,07,59,169,29,09,70,050,23,1*5B
(1604664779.3839653) $GPGSV,1,1,03,04,31,068,19,07,59,169,21,09,70,050,25,6*5A
(1604664779.3868556) $GLGSV,3,1,11,65,42,079,24,66,55,320,31,67,09,289,,72,04,095,,1*72
(1604664779.3898778) $GLGSV,3,2,11,74,16,026,25,75,50,084,14,76,32,152,21,81,29,258,,1*78
(1604664779.3922167) $GLGSV,3,3,11,82,27,315,28,83,03,354,,88,05,212,,1*44
(1604664779.3951354) $GLGSV,3,1,11,65,42,079,13,66,55,320,22,67,09,289,,72,04,095,,3*76
(1604664779.3980393) $GLGSV,3,2,11,74,16,026,,75,50,084,26,76,32,152,28,81,29,258,,3*75
(1604664779.400331) $GLGSV,3,3,11,82,27,315,09,83,03,354,,88,05,212,,3*45
(1604664779.401216) $GAGSV,1,1,00,*44
(1604664779.40205) $GAGSV,1,1,00,*44
(1604664779.402877) $GBGSV,1,1,00,*47
(1604664779.4037294) $GBGSV,1,1,00,*47
(1604664779.405997) $GNGLL,4626.04815,N,01118.82375,E,121540.00,A,A*78
(1604664780.3647022) $GNRMC,121541.00,A,4626.05916,N,01118.82779,E,40.266,14.76,091120,,,A,V*06
(1604664780.3666809) $GNVTG,14.76,T,,M,40.266,N,74.572,K,A*12
(1604664780.369865) $GNGGA,121541.00,4626.05916,N,01118.82779,E,1,07,1.36,237.5,M,46.0,M,,*45
(1604664780.3719869) $GNGSA,A,3,04,07,09,,,,,,,,,,2.44,1.36,2.02,1*0D
(1604664780.374319) $GNGSA,A,3,75,65,66,76,74,,,,,,,,2.44,1.36,2.02,2*07
(1604664780.3761632) $GNGSA,A,3,,,,,,,,,,,,,2.44,1.36,2.02,3*05
(1604664780.378079) $GNGSA,A,3,,,,,,,,,,,,,2.44,1.36,2.02,4*02
(1604664780.380579) $GPGSV,1,1,03,04,31,068,09,07,59,169,29,09,70,050,23,1*52
(1604664780.3831048) $GPGSV,1,1,03,04,31,068,20,07,59,169,21,09,70,050,25,6*50
(1604664780.3859923) $GLGSV,3,1,11,65,42,079,24,66,55,320,32,67,09,289,,72,04,095,,1*71
(1604664780.3889484) $GLGSV,3,2,11,74,16,026,26,75,50,084,12,76,32,152,21,81,29,258,,1*7D
(1604664780.3913116) $GLGSV,3,3,11,82,27,315,28,83,03,354,,88,05,212,,1*44
(1604664780.394192) $GLGSV,3,1,11,65,42,079,14,66,55,320,22,67,09,289,,72,04,095,,3*71
(1604664780.397061) $GLGSV,3,2,11,74,16,026,,75,50,084,26,76,32,152,29,81,29,258,,3*74
(1604664780.399401) $GLGSV,3,3,11,82,27,315,10,83,03,354,,88,05,212,,3*4D
(1604664780.4002402) $GAGSV,1,1,00,*44
(1604664780.4010658) $GAGSV,1,1,00,*44
(1604664780.401928) $GBGSV,1,1,00,*47
(1604664780.4027553) $GBGSV,1,1,00,*47
(1604664780.4049587) $GNGLL,4626.05916,N,01118.82779,E,121541.00,A,A*72
(1604664781.366959) $GNRMC,121542.00,A,4626.06807,N,01118.82968,E,30.884,8.54,091120,,,A,V*35
(1604664781.3706157) $GNVTG,8.54,T,,M,30.884,N,57.197,K,A*20
(1604664781.3744264) $GNGGA,121542.00,4626.06807,N,01118.82968,E,1,08,1.36,237.6,M,46.0,M,,*46
(1604664781.3765779) $GNGSA,A,3,04,07,09,,,,,,,,,,2.44,1.36,2.02,1*0D
(1604664781.3789334) $GNGSA,A,3,75,65,66,76,74,,,,,,,,2.44,1.36,2.02,2*07
(1604664781.3808205) $GNGSA,A,3,,,,,,,,,,,,,2.44,1.36,2.02,3*05
(1604664781.3827803) $GNGSA,A,3,,,,,,,,,,,,,2.44,1.36,2.02,4*02
(1604664781.3853314) $GPGSV,1,1,03,04,31,068,11,07,59,169,29,09,70,050,24,1*5C
(1604664781.3878536) $GPGSV,1,1,03,04,31,068,19,07,59,169,21,09,70,050,25,6*5A
(1604664781.390718) $GLGSV,3,1,11,65,42,079,24,66,55,320,33,67,09,289,,72,04,095,,1*70
(1604664781.3936765) $GLGSV,3,2,11,74,16,026,26,75,50,084,16,76,32,152,30,81,29,258,,1*79
(1604664781.3960228) $GLGSV,3,3,11,82,27,315,31,83,03,354,,88,05,212,,1*4C
(1604664781.3989415) $GLGSV,3,1,11,65,42,079,14,66,55,320,21,67,09,289,,72,04,095,,3*72
(1604664781.4018457) $GLGSV,3,2,11,74,16,026,,75,50,084,28,76,32,152,29,81,29,258,,3*7A
(1604664781.4041786) $GLGSV,3,3,11,82,27,315,10,83,03,354,,88,05,212,,3*4D
(1604664781.405267) $GAGSV,1,1,00,*44
(1604664781.4061058) $GAGSV,1,1,00,*44
(1604664781.4069452) $GBGSV,1,1,00,*47
(1604664781.4077857) $GBGSV,1,1,00,*47
(1604664781.41002) $GNGLL,4626.06807,N,01118.82968,E,121542.00,A,A*7D
(1604664782.3651636) $GNRMC,121543.00,A,4626.07491,N,01118.82667,E,25.289,336.04,091120,,,A,V*3E
(1604664782.3690772) $GNVTG,336.04,T,,M,25.289,N,46.835,K,A*29
(1604664782.3747525) $GNGGA,121543.00,4626.07491,N,01118.82667,E,1,08,1.36,236.7,M,46.0,M,,*45
(1604664782.3768737) $GNGSA,A,3,04,07,09,,,,,,,,,,2.44,1.36,2.02,1*0D
(1604664782.3792038) $GNGSA,A,3,75,65,66,76,74,,,,,,,,2.44,1.36,2.02,2*07
(1604664782.3810625) $GNGSA,A,3,,,,,,,,,,,,,2.44,1.36,2.02,3*05
(1604664782.3829448) $GNGSA,A,3,,,,,,,,,,,,,2.44,1.36,2.02,4*02
(1604664782.3854685) $GPGSV,1,1,03,04,31,068,27,07,60,168,32,09,70,050,23,1*5F
(1604664782.3879478) $GPGSV,1,1,03,04,31,068,19,07,60,168,20,09,70,050,26,6*53
(1604664782.390843) $GLGSV,3,1,11,65,42,079,23,66,55,320,33,67,09,289,,72,04,095,,1*77
(1604664782.393821) $GLGSV,3,2,11,74,16,026,24,75,50,084,19,76,32,152,30,81,29,258,,1*74
(1604664782.3961391) $GLGSV,3,3,11,82,27,315,30,83,03,354,,88,05,212,,1*4D
(1604664782.399031) $GLGSV,3,1,11,65,42,079,17,66,55,320,23,67,09,289,,72,04,095,,3*73
(1604664782.401948) $GLGSV,3,2,11,74,16,026,,75,50,084,29,76,32,152,29,81,29,258,,3*7B
(1604664782.4042978) $GLGSV,3,3,11,82,27,315,13,83,03,354,,88,05,212,,3*4E
(1604664782.4051683) $GAGSV,1,1,00,*44
(1604664782.40603) $GAGSV,1,1,00,*44
(1604664782.406846) $GBGSV,1,1,00,*47
(1604664782.4076924) $GBGSV,1,1,00,*47
(1604664782.4099448) $GNGLL,4626.07491,N,01118.82667,E,121543.00,A,A*7E
(1604664783.3661418) $GNRMC,121544.00,A,4626.07883,N,01118.81979,E,20.852,300.64,091120,,,A,V*3F
(1604664783.370293) $GNVTG,300.64,T,,M,20.852,N,38.618,K,A*2B
(1604664783.3753574) $GNGGA,121544.00,4626.07883,N,01118.81979,E,1,08,1.36,234.6,M,46.0,M,,*4D
(1604664783.3775146) $GNGSA,A,3,04,07,09,,,,,,,,,,2.44,1.36,2.02,1*0D
(1604664783.3798015) $GNGSA,A,3,75,65,66,76,74,,,,,,,,2.44,1.36,2.02,2*07
(1604664783.3816884) $GNGSA,A,3,,,,,,,,,,,,,2.44,1.36,2.02,3*05
(1604664783.383574) $GNGSA,A,3,,,,,,,,,,,,,2.44,1.36,2.02,4*02
(1604664783.3866389) $GPGSV,1,1,04,02,38,289,27,04,31,068,27,07,60,168,32,09,70,051,26,1*63
(1604664783.3896234) $GPGSV,1,1,04,02,38,289,,04,31,068,23,07,60,168,19,09,70,051,28,6*62
(1604664783.3924696) $GLGSV,3,1,11,65,42,079,22,66,55,320,32,67,09,289,,72,04,095,,1*77
(1604664783.3954844) $GLGSV,3,2,11,74,16,026,20,75,50,084,30,76,32,152,31,81,29,258,,1*7A
(1604664783.3978496) $GLGSV,3,3,11,82,27,315,23,83,03,354,,88,05,212,,1*4F
(1604664783.400758) $GLGSV,3,1,11,65,42,079,22,66,55,320,25,67,09,289,,72,04,095,,3*73
(1604664783.403693) $GLGSV,3,2,11,74,16,026,,75,50,084,30,76,32,152,28,81,29,258,,3*72
(1604664783.4060874) $GLGSV,3,3,11,82,27,315,18,83,03,354,,88,05,212,,3*45
(1604664783.40692) $GAGSV,1,1,00,*44
(1604664783.4077513) $GAGSV,1,1,00,*44
(1604664783.4086003) $GBGSV,1,1,00,*47
(1604664783.4094646) $GBGSV,1,1,00,*47
(1604664783.4116576) $GNGLL,4626.07883,N,01118.81979,E,121544.00,A,A*75
(1604664784.3658884) $GNRMC,121545.00,A,4626.07882,N,01118.81167,E,21.257,258.57,091120,,,A,V*3A
(1604664784.369877) $GNVTG,258.57,T,,M,21.257,N,39.369,K,A*2B
(1604664784.3735998) $GNGGA,121545.00,4626.07882,N,01118.81167,E,1,08,1.36,235.0,M,46.0,M,,*4D
(1604664784.37575) $GNGSA,A,3,04,07,09,,,,,,,,,,2.44,1.36,2.02,1*0D
(1604664784.3780596) $GNGSA,A,3,75,65,66,76,74,,,,,,,,2.44,1.36,2.02,2*07
(1604664784.3799207) $GNGSA,A,3,,,,,,,,,,,,,2.44,1.36,2.02,3*05
(1604664784.3818042) $GNGSA,A,3,,,,,,,,,,,,,2.44,1.36,2.02,4*02
(1604664784.3848827) $GPGSV,1,1,04,02,38,289,27,04,31,068,25,07,60,168,31,09,70,051,32,1*67
(1604664784.3878794) $GPGSV,1,1,04,02,38,289,,04,31,068,27,07,60,168,20,09,70,051,28,6*6C
(1604664784.3908484) $GLGSV,3,1,11,65,42,079,26,66,55,320,24,67,09,289,,72,04,095,,1*74
(1604664784.3938358) $GLGSV,3,2,11,74,16,026,17,75,50,084,32,76,32,152,31,81,29,258,,1*7C
(1604664784.3962073) $GLGSV,3,3,11,82,27,315,20,83,03,354,,88,05,212,,1*4C
(1604664784.3991284) $GLGSV,3,1,11,65,42,079,23,66,55,320,26,67,09,289,,72,04,095,,3*71
(1604664784.4020371) $GLGSV,3,2,11,74,16,026,,75,50,084,29,76,32,152,27,81,29,258,,3*75
(1604664784.4043741) $GLGSV,3,3,11,82,27,315,18,83,03,354,,88,05,212,,3*45
(1604664784.4052289) $GAGSV,1,1,00,*44
(1604664784.406051) $GAGSV,1,1,00,*44
(1604664784.4069026) $GBGSV,1,1,00,*47
(1604664784.4077263) $GBGSV,1,1,00,*47
(1604664784.4099584) $GNGLL,4626.07882,N,01118.81167,E,121545.00,A,A*72
(1604664785.3673244) $GNRMC,121546.00,A,4626.07476,N,01118.80572,E,23.066,215.17,091120,,,A,V*30
(1604664785.370557) $GNVTG,215.17,T,,M,23.066,N,42.717,K,A*25
(1604664785.373753) $GNGGA,121546.00,4626.07476,N,01118.80572,E,1,08,1.36,236.2,M,46.0,M,,*49
(1604664785.3759015) $GNGSA,A,3,04,07,09,,,,,,,,,,2.44,1.36,2.02,1*0D
(1604664785.3782458) $GNGSA,A,3,75,65,66,76,74,,,,,,,,2.44,1.36,2.02,2*07
(1604664785.3800945) $GNGSA,A,3,,,,,,,,,,,,,2.44,1.36,2.02,3*05
(1604664785.382002) $GNGSA,A,3,,,,,,,,,,,,,2.44,1.36,2.02,4*02
(1604664785.3850462) $GPGSV,1,1,04,02,38,289,24,04,31,068,27,07,60,168,29,09,70,051,32,1*6F
(1604664785.3880925) $GPGSV,1,1,04,02,38,289,,04,31,068,26,07,60,168,21,09,70,051,26,6*62
(1604664785.391007) $GLGSV,3,1,11,65,42,079,30,66,55,320,23,67,09,289,,72,04,095,,1*74
(1604664785.3939612) $GLGSV,3,2,11,74,16,026,28,75,50,084,32,76,32,152,24,81,29,258,,1*74
(1604664785.3962998) $GLGSV,3,3,11,82,27,315,18,83,03,354,,88,05,212,,1*47
(1604664785.39919) $GLGSV,3,1,11,65,42,079,22,66,55,320,27,67,09,289,,72,04,095,,3*71
(1604664785.4021091) $GLGSV,3,2,11,74,16,026,,75,50,084,27,76,32,152,25,81,29,258,,3*79
(1604664785.404417) $GLGSV,3,3,11,82,27,315,22,83,03,354,,88,05,212,,3*4C
(1604664785.4052706) $GAGSV,1,1,00,*44
(1604664785.4061236) $GAGSV,1,1,00,*44
(1604664785.4069471) $GBGSV,1,1,00,*47
(1604664785.407772) $GBGSV,1,1,00,*47
(1604664785.4100103) $GNGLL,4626.07476,N,01118.80572,E,121546.00,A,A*77
(1604664786.365853) $GNRMC,121547.00,A,4626.06832,N,01118.80250,E,25.623,191.65,091120,,,A,V*30
(1604664786.3693514) $GNVTG,191.65,T,,M,25.623,N,47.454,K,A*2F
(1604664786.3725522) $GNGGA,121547.00,4626.06832,N,01118.80250,E,1,08,1.37,234.7,M,46.0,M,,*44
(1604664786.3746734) $GNGSA,A,3,04,07,09,,,,,,,,,,2.44,1.37,2.02,1*0C
(1604664786.376962) $GNGSA,A,3,75,65,66,76,74,,,,,,,,2.44,1.37,2.02,2*06
(1604664786.3788464) $GNGSA,A,3,,,,,,,,,,,,,2.44,1.37,2.02,3*04
(1604664786.380718) $GNGSA,A,3,,,,,,,,,,,,,2.44,1.37,2.02,4*03
(1604664786.3837807) $GPGSV,1,1,04,02,38,289,24,04,31,068,27,07,60,168,31,09,70,051,33,1*67
(1604664786.386756) $GPGSV,1,1,04,02,38,289,,04,31,068,25,07,60,168,21,09,70,051,25,6*62
(1604664786.3896592) $GLGSV,3,1,11,65,42,079,30,66,55,320,31,67,09,289,,72,04,095,,1*77
(1604664786.3926432) $GLGSV,3,2,11,74,16,026,29,75,50,084,33,76,32,152,34,81,29,258,,1*75
(1604664786.3949952) $GLGSV,3,3,11,82,27,315,18,83,03,354,,88,05,212,,1*47
(1604664786.397881) $GLGSV,3,1,11,65,42,079,21,66,55,320,27,67,09,289,,72,04,095,,3*72
(1604664786.4007394) $GLGSV,3,2,11,74,16,026,,75,50,084,26,76,32,152,22,81,29,258,,3*7F
(1604664786.40314) $GLGSV,3,3,11,82,27,315,24,83,03,354,,88,05,212,,3*4A
(1604664786.4039896) $GAGSV,1,1,00,*44
(1604664786.4048207) $GAGSV,1,1,00,*44
(1604664786.4056656) $GBGSV,1,1,00,*47
(1604664786.4064875) $GBGSV,1,1,00,*47
(1604664786.408697) $GNGLL,4626.06832,N,01118.80250,E,121547.00,A,A*7C
(1604664787.3666916) $GNRMC,121548.00,A,4626.06152,N,01118.80025,E,24.868,192.52,091120,,,A,V*37
(1604664787.3702605) $GNVTG,192.52,T,,M,24.868,N,46.055,K,A*2C
(1604664787.3734567) $GNGGA,121548.00,4626.06152,N,01118.80025,E,1,08,1.37,234.0,M,46.0,M,,*43
(1604664787.375577) $GNGSA,A,3,04,07,09,,,,,,,,,,2.44,1.37,2.02,1*0C
(1604664787.377913) $GNGSA,A,3,75,65,66,76,74,,,,,,,,2.44,1.37,2.02,2*06
(1604664787.3797956) $GNGSA,A,3,,,,,,,,,,,,,2.44,1.37,2.02,3*04
(1604664787.3817155) $GNGSA,A,3,,,,,,,,,,,,,2.44,1.37,2.02,4*03
(1604664787.3847811) $GPGSV,1,1,04,02,38,289,23,04,31,068,26,07,60,168,30,09,70,051,33,1*60
(1604664787.387774) $GPGSV,1,1,04,02,38,289,,04,31,068,25,07,60,168,20,09,70,051,25,6*63
(1604664787.3906813) $GLGSV,3,1,11,65,42,079,29,66,55,320,30,67,09,289,,72,04,095,,1*7E
(1604664787.3936927) $GLGSV,3,2,11,74,16,026,28,75,50,084,33,76,32,152,33,81,29,258,,1*73
(1604664787.3960469) $GLGSV,3,3,11,82,27,315,18,83,03,354,,88,05,212,,1*47
(1604664787.39918) $GLGSV,3,1,11,65,42,079,20,66,55,320,27,67,09,289,,72,04,095,,3*73
(1604664787.4021056) $GLGSV,3,2,11,74,16,026,,75,50,084,25,76,32,152,18,81,29,258,,3*75
(1604664787.4044514) $GLGSV,3,3,11,82,27,315,25,83,03,354,,88,05,212,,3*4B
(1604664787.4053144) $GAGSV,1,1,00,*44
(1604664787.4061358) $GAGSV,1,1,00,*44
(1604664787.4069893) $GBGSV,1,1,00,*47
(1604664787.4078395) $GBGSV,1,1,00,*47
(1604664787.4100928) $GNGLL,4626.06152,N,01118.80025,E,121548.00,A,A*7C
(1604664788.3661132) $GNRMC,121549.00,A,4626.05518,N,01118.79844,E,22.674,190.04,091120,,,A,V*32
(1604664788.368946) $GNVTG,190.04,T,,M,22.674,N,41.993,K,A*2C
(1604664788.3721156) $GNGGA,121549.00,4626.05518,N,01118.79844,E,1,08,1.37,233.7,M,46.0,M,,*42
(1604664788.3742533) $GNGSA,A,3,04,07,09,,,,,,,,,,2.44,1.37,2.02,1*0C
(1604664788.376514) $GNGSA,A,3,75,65,66,76,74,,,,,,,,2.44,1.37,2.02,2*06
(1604664788.3784022) $GNGSA,A,3,,,,,,,,,,,,,2.44,1.37,2.02,3*04
(1604664788.3802547) $GNGSA,A,3,,,,,,,,,,,,,2.44,1.37,2.02,4*03
(1604664788.3832855) $GPGSV,1,1,04,02,38,289,23,04,31,068,27,07,60,168,31,09,70,051,33,1*60
(1604664788.3862586) $GPGSV,1,1,04,02,38,289,,04,31,068,25,07,60,168,21,09,70,051,25,6*62
(1604664788.389167) $GLGSV,3,1,11,65,42,079,28,66,55,320,30,67,09,289,,72,04,095,,1*7F
(1604664788.392115) $GLGSV,3,2,11,74,16,026,27,75,50,084,33,76,32,152,33,81,29,258,,1*7C
(1604664788.3944528) $GLGSV,3,3,11,82,27,315,20,83,03,354,,88,05,212,,1*4C
(1604664788.39734) $GLGSV,3,1,11,65,42,079,21,66,55,320,27,67,09,289,,72,04,095,,3*72
(1604664788.4002197) $GLGSV,3,2,11,74,16,026,,75,50,084,24,76,32,152,17,81,29,258,,3*7B
(1604664788.4025903) $GLGSV,3,3,11,82,27,315,27,83,03,354,,88,05,212,,3*49
(1604664788.4034228) $GAGSV,1,1,00,*44
(1604664788.404259) $GAGSV,1,1,00,*44
(1604664788.405125) $GBGSV,1,1,00,*47
(1604664788.4059815) $GBGSV,1,1,00,*47
(1604664788.4082406) $GNGLL,4626.05518,N,01118.79844,E,121549.00,A,A*7D
(1604664789.3674479) $GNRMC,121550.00,A,4626.04946,N,01118.79653,E,20.618,193.64,091120,,,A,V*39
(1604664789.3694167) $GNVTG,193.64,T,,M,20.618,N,38.185,K,A*20
(1604664789.3725908) $GNGGA,121550.00,4626.04946,N,01118.79653,E,1,08,1.37,233.3,M,46.0,M,,*40
(1604664789.3747687) $GNGSA,A,3,04,07,09,,,,,,,,,,2.44,1.37,2.02,1*0C
(1604664789.3770695) $GNGSA,A,3,75,65,66,76,74,,,,,,,,2.44,1.37,2.02,2*06
(1604664789.3789973) $GNGSA,A,3,,,,,,,,,,,,,2.44,1.37,2.02,3*04
(1604664789.3808866) $GNGSA,A,3,,,,,,,,,,,,,2.44,1.37,2.02,4*03
(1604664789.3839686) $GPGSV,1,1,04,02,38,289,24,04,31,068,26,07,60,168,31,09,70,051,33,1*66
(1604664789.386964) $GPGSV,1,1,04,02,38,289,,04,31,068,26,07,60,168,22,09,70,051,26,6*61
(1604664789.389888) $GLGSV,3,1,11,65,42,079,28,66,55,320,30,67,09,289,,72,04,095,,1*7F
(1604664789.3928082) $GLGSV,3,2,11,74,16,026,28,75,50,084,32,76,32,152,33,81,29,258,,1*72
(1604664789.3951626) $GLGSV,3,3,11,82,27,315,21,83,03,354,,88,05,212,,1*4D
(1604664789.398031) $GLGSV,3,1,11,65,42,079,20,66,55,320,27,67,09,289,,72,04,095,,3*73
(1604664789.4009192) $GLGSV,3,2,11,74,16,026,,75,50,084,25,76,32,152,16,81,29,258,,3*7B
(1604664789.4032624) $GLGSV,3,3,11,82,27,315,27,83,03,354,,88,05,212,,3*49
(1604664789.4040864) $GAGSV,1,1,00,*44
(1604664789.404916) $GAGSV,1,1,00,*44
(1604664789.405769) $GBGSV,1,1,00,*47
(1604664789.4066021) $GBGSV,1,1,00,*47
(1604664789.4088633) $GNGLL,4626.04946,N,01118.79653,E,121550.00,A,A*7B
(1604664790.3655534) $GNRMC,121551.00,A,4626.04424,N,01118.79486,E,18.761,191.53,091120,,,A,V*39
(1604664790.368211) $GNVTG,191.53,T,,M,18.761,N,34.745,K,A*24
(1604664790.3714302) $GNGGA,121551.00,4626.04424,N,01118.79486,E,1,08,1.37,233.1,M,46.0,M,,*40
(1604664790.3735614) $GNGSA,A,3,04,07,09,,,,,,,,,,2.44,1.37,2.02,1*0C
(1604664790.3758392) $GNGSA,A,3,75,65,66,76,74,,,,,,,,2.44,1.37,2.02,2*06
(1604664790.377773) $GNGSA,A,3,,,,,,,,,,,,,2.44,1.37,2.02,3*04
(1604664790.3796635) $GNGSA,A,3,,,,,,,,,,,,,2.44,1.37,2.02,4*03
(1604664790.3827467) $GPGSV,1,1,04,02,38,289,23,04,31,068,27,07,60,168,31,09,70,051,33,1*60
(1604664790.3857713) $GPGSV,1,1,04,02,38,289,,04,31,068,26,07,60,168,22,09,70,051,26,6*61
(1604664790.3886623) $GLGSV,3,1,11,65,42,079,28,66,55,320,30,67,09,289,,72,04,095,,1*7F
(1604664790.3916407) $GLGSV,3,2,11,74,16,026,28,75,50,084,32,76,32,152,33,81,29,258,,1*72
(1604664790.3940673) $GLGSV,3,3,11,82,27,315,21,83,03,354,,88,05,212,,1*4D
(1604664790.3969474) $GLGSV,3,1,11,65,42,079,20,66,55,320,27,67,09,289,,72,04,095,,3*73
(1604664790.3998544) $GLGSV,3,2,11,74,16,026,,75,50,084,25,76,32,152,17,81,29,258,,3*7A
(1604664790.4021912) $GLGSV,3,3,11,82,27,315,27,83,03,354,,88,05,212,,3*49
(1604664790.403072) $GAGSV,1,1,00,*44
(1604664790.4039235) $GAGSV,1,1,00,*44
(1604664790.4047492) $GBGSV,1,1,00,*47
(1604664790.4056187) $GBGSV,1,1,00,*47
(1604664790.4078302) $GNGLL,4626.04424,N,01118.79486,E,121551.00,A,A*79
(1604664791.3663695) $GNRMC,121552.00,A,4626.04008,N,01118.79352,E,14.061,192.49,091120,,,A,V*3D
(1604664791.368231) $GNVTG,192.49,T,,M,14.061,N,26.042,K,A*24
(1604664791.3714118) $GNGGA,121552.00,4626.04008,N,01118.79352,E,1,08,1.37,232.9,M,46.0,M,,*4E
(1604664791.373572) $GNGSA,A,3,04,07,09,,,,,,,,,,2.44,1.37,2.02,1*0C
(1604664791.3758314) $GNGSA,A,3,75,65,66,76,74,,,,,,,,2.44,1.37,2.02,2*06
(1604664791.3777542) $GNGSA,A,3,,,,,,,,,,,,,2.44,1.37,2.02,3*04
(1604664791.379624) $GNGSA,A,3,,,,,,,,,,,,,2.44,1.37,2.02,4*03
(1604664791.382687) $GPGSV,1,1,04,02,38,289,24,04,31,068,26,07,60,168,31,09,70,051,33,1*66
(1604664791.3856456) $GPGSV,1,1,04,02,38,289,,04,31,068,26,07,60,168,22,09,70,051,26,6*61
(1604664791.3885362) $GLGSV,3,1,11,65,42,079,28,66,55,320,29,67,09,289,,72,04,095,,1*77
(1604664791.3915317) $GLGSV,3,2,11,74,16,026,28,75,50,084,32,76,32,152,32,81,29,258,,1*73
(1604664791.3939226) $GLGSV,3,3,11,82,27,315,21,83,03,354,,88,05,212,,1*4D
(1604664791.3968136) $GLGSV,3,1,11,65,42,079,20,66,55,320,27,67,09,289,,72,04,095,,3*73
(1604664791.3996956) $GLGSV,3,2,11,74,16,026,,75,50,084,25,76,32,152,18,81,29,258,,3*75
(1604664791.4020638) $GLGSV,3,3,11,82,27,315,26,83,03,354,,88,05,212,,3*48
(1604664791.4029121) $GAGSV,1,1,00,*44
(1604664791.4037428) $GAGSV,1,1,00,*44
(1604664791.4045691) $GBGSV,1,1,00,*47
(1604664791.4054358) $GBGSV,1,1,00,*47
(1604664791.4076529) $GNGLL,4626.04008,N,01118.79352,E,121552.00,A,A*7E
(1604664792.3661056) $GNRMC,121553.00,A,4626.03775,N,01118.79266,E,6.571,193.14,091120,,,A,V*0E
(1604664792.369917) $GNVTG,193.14,T,,M,6.571,N,12.169,K,A*15
(1604664792.3745358) $GNGGA,121553.00,4626.03775,N,01118.79266,E,1,08,1.37,232.7,M,46.0,M,,*4D
(1604664792.3766494) $GNGSA,A,3,04,07,09,,,,,,,,,,2.44,1.37,2.02,1*0C
(1604664792.3789752) $GNGSA,A,3,75,65,66,76,74,,,,,,,,2.44,1.37,2.02,2*06
(1604664792.3808393) $GNGSA,A,3,,,,,,,,,,,,,2.44,1.37,2.02,3*04
(1604664792.3827171) $GNGSA,A,3,,,,,,,,,,,,,2.44,1.37,2.02,4*03
(1604664792.3858073) $GPGSV,1,1,04,02,38,289,23,04,31,068,25,07,60,168,30,09,70,051,32,1*62
(1604664792.3888588) $GPGSV,1,1,04,02,38,289,,04,31,068,27,07,60,168,22,09,70,051,27,6*61
(1604664792.391788) $GLGSV,3,1,11,65,42,079,27,66,55,320,28,67,09,289,,72,04,095,,1*79
(1604664792.3947802) $GLGSV,3,2,11,74,16,026,28,75,50,084,30,76,32,152,31,81,29,258,,1*72
(1604664792.3970788) $GLGSV,3,3,11,82,27,315,18,83,03,354,,88,05,212,,1*47
(1604664792.3999817) $GLGSV,3,1,11,65,42,079,21,66,55,320,27,67,09,289,,72,04,095,,3*72
(1604664792.4029245) $GLGSV,3,2,11,74,16,026,,75,50,084,25,76,32,152,19,81,29,258,,3*74
(1604664792.4053054) $GLGSV,3,3,11,82,27,315,26,83,03,354,,88,05,212,,3*48
(1604664792.406133) $GAGSV,1,1,00,*44
(1604664792.406962) $GAGSV,1,1,00,*44
(1604664792.4078045) $GBGSV,1,1,00,*47
(1604664792.408648) $GBGSV,1,1,00,*47
(1604664792.4109077) $GNGLL,4626.03775,N,01118.79266,E,121553.00,A,A*73
(1604664793.3654542) $GNRMC,121554.00,A,4626.03723,N,01118.79248,E,0.183,,091120,,,A,V*19
(1604664793.3686414) $GNVTG,,T,,M,0.183,N,0.339,K,A*3E
(1604664793.3725727) $GNGGA,121554.00,4626.03723,N,01118.79248,E,1,08,1.37,232.7,M,46.0,M,,*45
(1604664793.3747177) $GNGSA,A,3,04,07,09,,,,,,,,,,2.44,1.37,2.02,1*0C
(1604664793.3770182) $GNGSA,A,3,75,65,66,76,74,,,,,,,,2.44,1.37,2.02,2*06
(1604664793.3789117) $GNGSA,A,3,,,,,,,,,,,,,2.44,1.37,2.02,3*04
(1604664793.3807833) $GNGSA,A,3,,,,,,,,,,,,,2.44,1.37,2.02,4*03
(1604664793.3838565) $GPGSV,1,1,04,02,38,289,23,04,31,068,25,07,60,168,31,09,70,051,32,1*63
(1604664793.3868384) $GPGSV,1,1,04,02,38,289,,04,31,068,26,07,60,168,22,09,70,051,27,6*60
